[{"uf":"RO","nome":"Rondônia","lat":-10.83,"lng":-63.34,"regiao":"Norte"},{"uf":"AC","nome":"Acre","lat":-8.77,"lng":-70.55,"regiao":"Norte"},{"uf":"AM","nome":"Amazonas","lat":-3.47,"lng":-65.1,"regiao":"Norte"},{"uf":"RR","nome":"Roraima","lat":1.99,"lng":-61.33,"regiao":"Norte"},{"uf":"PA","nome":"Pará","lat":-3.79,"lng":-52.48,"regiao":"Norte"},{"uf":"AP","nome":"Amapá","lat":1.41,"lng":-51.77,"regiao":"Norte"},{"uf":"TO","nome":"Tocantins","lat":-9.46,"lng":-48.26,"regiao":"Norte"},{"uf":"MA","nome":"Maranhão","lat":-5.42,"lng":-45.44,"regiao":"Nordeste"},{"uf":"PI","nome":"Piauí","lat":-6.6,"lng":-42.28,"regiao":"Nordeste"},{"uf":"CE","nome":"Ceará","lat":-5.2,"lng":-39.53,"regiao":"Nordeste"},{"uf":"RN","nome":"Rio Grande do Norte","lat":-5.81,"lng":-36.59,"regiao":"Nordeste"},{"uf":"PB","nome":"Paraíba","lat":-7.28,"lng":-36.72,"regiao":"Nordeste"},{"uf":"PE","nome":"Pernambuco","lat":-8.38,"lng":-37.86,"regiao":"Nordeste"},{"uf":"AL","nome":"Alagoas","lat":-9.62,"lng":-36.82,"regiao":"Nordeste"},{"uf":"SE","nome":"Sergipe","lat":-10.57,"lng":-37.45,"regiao":"Nordeste"},{"uf":"BA","nome":"Bahia","lat":-13.29,"lng":-41.71,"regiao":"Nordeste"},{"uf":"MG","nome":"Minas Gerais","lat":-18.1,"lng":-44.38,"regiao":"Sudeste"},{"uf":"ES","nome":"Espírito Santo","lat":-19.19,"lng":-40.34,"regiao":"Sudeste"},{"uf":"RJ","nome":"Rio de Janeiro","lat":-22.25,"lng":-42.66,"regiao":"Sudeste"},{"uf":"SP","nome":"São Paulo","lat":-22.19,"lng":-48.79,"regiao":"Sudeste"},{"uf":"PR","nome":"Paraná","lat":-24.89,"lng":-51.55,"regiao":"Sul"},{"uf":"SC","nome":"Santa Catarina","lat":-27.45,"lng":-50.95,"regiao":"Sul"},{"uf":"RS","nome":"Rio Grande do Sul","lat":-30.17,"lng":-53.5,"regiao":"Sul"},{"uf":"MS","nome":"Mato Grosso do Sul","lat":-20.51,"lng":-54.54,"regiao":"Centro-Oeste"},{"uf":"MT","nome":"Mato Grosso","lat":-12.64,"lng":-55.42,"regiao":"Centro-Oeste"},{"uf":"GO","nome":"Goiás","lat":-15.98,"lng":-49.86,"regiao":"Centro-Oeste"},{"uf":"DF","nome":"Distrito Federal","lat":-15.83,"lng":-47.86,"regiao":"Centro-Oeste"}]