[{"nome":"Abadia de Goiás","uf":"GO","lat":-16.7573,"lng":-49.4412},{"nome":"Abadia dos Dourados","uf":"MG","lat":-18.4831,"lng":-47.3916},{"nome":"Abadiânia","uf":"GO","lat":-16.197,"lng":-48.7057},{"nome":"Abaeté","uf":"MG","lat":-19.1551,"lng":-45.4444},{"nome":"Abaetetuba","uf":"PA","lat":-1.72183,"lng":-48.8788},{"nome":"Abaiara","uf":"CE","lat":-7.34588,"lng":-39.0416},{"nome":"Abaíra","uf":"BA","lat":-13.2488,"lng":-41.6619},{"nome":"Abaré","uf":"BA","lat":-8.72073,"lng":-39.1162},{"nome":"Abatiá","uf":"PR","lat":-23.3049,"lng":-50.3133},{"nome":"Abdon Batista","uf":"SC","lat":-27.6126,"lng":-51.0233},{"nome":"Abel Figueiredo","uf":"PA","lat":-4.95333,"lng":-48.3933},{"nome":"Abelardo Luz","uf":"SC","lat":-26.5716,"lng":-52.3229},{"nome":"Abre Campo","uf":"MG","lat":-20.2996,"lng":-42.4743},{"nome":"Abreu e Lima","uf":"PE","lat":-7.90072,"lng":-34.8984},{"nome":"Abreulândia","uf":"TO","lat":-9.62101,"lng":-49.1518},{"nome":"Acaiaca","uf":"MG","lat":-20.359,"lng":-43.1439},{"nome":"Açailândia","uf":"MA","lat":-4.94714,"lng":-47.5004},{"nome":"Acajutiba","uf":"BA","lat":-11.6575,"lng":-38.0197},{"nome":"Acará","uf":"PA","lat":-1.95383,"lng":-48.1985},{"nome":"Acarape","uf":"CE","lat":-4.22083,"lng":-38.7055},{"nome":"Acaraú","uf":"CE","lat":-2.88769,"lng":-40.1183},{"nome":"Acari","uf":"RN","lat":-6.4282,"lng":-36.6347},{"nome":"Acauã","uf":"PI","lat":-8.21954,"lng":-41.0831},{"nome":"Aceguá","uf":"RS","lat":-31.8665,"lng":-54.1615},{"nome":"Acopiara","uf":"CE","lat":-6.08911,"lng":-39.448},{"nome":"Acorizal","uf":"MT","lat":-15.194,"lng":-56.3632},{"nome":"Acrelândia","uf":"AC","lat":-9.82581,"lng":-66.8972},{"nome":"Acreúna","uf":"GO","lat":-17.396,"lng":-50.3749},{"nome":"Açu","uf":"RN","lat":-5.58362,"lng":-36.914},{"nome":"Açucena","uf":"MG","lat":-19.0671,"lng":-42.5419},{"nome":"Adamantina","uf":"SP","lat":-21.682,"lng":-51.0737},{"nome":"Adelândia","uf":"GO","lat":-16.4127,"lng":-50.1657},{"nome":"Adolfo","uf":"SP","lat":-21.2325,"lng":-49.6451},{"nome":"Adrianópolis","uf":"PR","lat":-24.6606,"lng":-48.9922},{"nome":"Adustina","uf":"BA","lat":-10.5437,"lng":-38.1113},{"nome":"Afogados da Ingazeira","uf":"PE","lat":-7.74312,"lng":-37.631},{"nome":"Afonso Bezerra","uf":"RN","lat":-5.49229,"lng":-36.5075},{"nome":"Afonso Cláudio","uf":"ES","lat":-20.0778,"lng":-41.1261},{"nome":"Afonso Cunha","uf":"MA","lat":-4.13631,"lng":-43.3275},{"nome":"Afrânio","uf":"PE","lat":-8.51136,"lng":-41.0095},{"nome":"Afuá","uf":"PA","lat":-0.154874,"lng":-50.3861},{"nome":"Agrestina","uf":"PE","lat":-8.45966,"lng":-35.9447},{"nome":"Agricolândia","uf":"PI","lat":-5.79676,"lng":-42.6664},{"nome":"Agrolândia","uf":"SC","lat":-27.4087,"lng":-49.822},{"nome":"Agronômica","uf":"SC","lat":-27.2662,"lng":-49.708},{"nome":"Água Azul do Norte","uf":"PA","lat":-6.79053,"lng":-50.4791},{"nome":"Água Boa","uf":"MG","lat":-17.9914,"lng":-42.3806},{"nome":"Água Boa","uf":"MT","lat":-14.051,"lng":-52.1601},{"nome":"Água Branca","uf":"PI","lat":-5.88856,"lng":-42.637},{"nome":"Água Branca","uf":"PB","lat":-7.51144,"lng":-37.6357},{"nome":"Água Branca","uf":"AL","lat":-9.262,"lng":-37.938},{"nome":"Água Clara","uf":"MS","lat":-20.4452,"lng":-52.879},{"nome":"Água Comprida","uf":"MG","lat":-20.0576,"lng":-48.1069},{"nome":"Água Doce","uf":"SC","lat":-26.9985,"lng":-51.5528},{"nome":"Água Doce do Maranhão","uf":"MA","lat":-2.84048,"lng":-42.1189},{"nome":"Água Doce do Norte","uf":"ES","lat":-18.5482,"lng":-40.9854},{"nome":"Água Fria","uf":"BA","lat":-11.8618,"lng":-38.7639},{"nome":"Água Fria de Goiás","uf":"GO","lat":-14.9778,"lng":-47.7823},{"nome":"Água Limpa","uf":"GO","lat":-18.0771,"lng":-48.7603},{"nome":"Água Nova","uf":"RN","lat":-6.20351,"lng":-38.2941},{"nome":"Água Preta","uf":"PE","lat":-8.70609,"lng":-35.5263},{"nome":"Água Santa","uf":"RS","lat":-28.1672,"lng":-52.031},{"nome":"Aguaí","uf":"SP","lat":-22.0572,"lng":-46.9735},{"nome":"Aguanil","uf":"MG","lat":-20.9439,"lng":-45.3915},{"nome":"Águas Belas","uf":"PE","lat":-9.11125,"lng":-37.1226},{"nome":"Águas da Prata","uf":"SP","lat":-21.9319,"lng":-46.7176},{"nome":"Águas de Chapecó","uf":"SC","lat":-27.0754,"lng":-52.9808},{"nome":"Águas de Lindóia","uf":"SP","lat":-22.4733,"lng":-46.6314},{"nome":"Águas de Santa Bárbara","uf":"SP","lat":-22.8812,"lng":-49.2421},{"nome":"Águas de São Pedro","uf":"SP","lat":-22.5977,"lng":-47.8734},{"nome":"Águas Formosas","uf":"MG","lat":-17.0802,"lng":-40.9384},{"nome":"Águas Frias","uf":"SC","lat":-26.8794,"lng":-52.8568},{"nome":"Águas Lindas de Goiás","uf":"GO","lat":-15.7617,"lng":-48.2816},{"nome":"Águas Mornas","uf":"SC","lat":-27.6963,"lng":-48.8243},{"nome":"Águas Vermelhas","uf":"MG","lat":-15.7431,"lng":-41.4571},{"nome":"Agudo","uf":"RS","lat":-29.6447,"lng":-53.2515},{"nome":"Agudos","uf":"SP","lat":-22.4694,"lng":-48.9863},{"nome":"Agudos do Sul","uf":"PR","lat":-25.9899,"lng":-49.3343},{"nome":"Águia Branca","uf":"ES","lat":-18.9846,"lng":-40.7437},{"nome":"Aguiar","uf":"PB","lat":-7.0918,"lng":-38.1681},{"nome":"Aguiarnópolis","uf":"TO","lat":-6.55409,"lng":-47.4702},{"nome":"Aimorés","uf":"MG","lat":-19.5007,"lng":-41.0746},{"nome":"Aiquara","uf":"BA","lat":-14.1269,"lng":-39.8937},{"nome":"Aiuaba","uf":"CE","lat":-6.57122,"lng":-40.1178},{"nome":"Aiuruoca","uf":"MG","lat":-21.9736,"lng":-44.6042},{"nome":"Ajuricaba","uf":"RS","lat":-28.2342,"lng":-53.7757},{"nome":"Alagoa","uf":"MG","lat":-22.171,"lng":-44.6413},{"nome":"Alagoa Grande","uf":"PB","lat":-7.03943,"lng":-35.6206},{"nome":"Alagoa Nova","uf":"PB","lat":-7.05377,"lng":-35.7591},{"nome":"Alagoinha","uf":"PB","lat":-6.94657,"lng":-35.5332},{"nome":"Alagoinha","uf":"PE","lat":-8.4665,"lng":-36.7788},{"nome":"Alagoinha do Piauí","uf":"PI","lat":-7.00039,"lng":-40.9282},{"nome":"Alagoinhas","uf":"BA","lat":-12.1335,"lng":-38.4208},{"nome":"Alambari","uf":"SP","lat":-23.5503,"lng":-47.898},{"nome":"Albertina","uf":"MG","lat":-22.2018,"lng":-46.6139},{"nome":"Alcântara","uf":"MA","lat":-2.39574,"lng":-44.4062},{"nome":"Alcântaras","uf":"CE","lat":-3.58537,"lng":-40.5479},{"nome":"Alcantil","uf":"PB","lat":-7.73668,"lng":-36.0511},{"nome":"Alcinópolis","uf":"MS","lat":-18.3255,"lng":-53.7042},{"nome":"Alcobaça","uf":"BA","lat":-17.5195,"lng":-39.2036},{"nome":"Aldeias Altas","uf":"MA","lat":-4.62621,"lng":-43.4689},{"nome":"Alecrim","uf":"RS","lat":-27.6579,"lng":-54.7649},{"nome":"Alegre","uf":"ES","lat":-20.758,"lng":-41.5382},{"nome":"Alegrete","uf":"RS","lat":-29.7902,"lng":-55.7949},{"nome":"Alegrete do Piauí","uf":"PI","lat":-7.24196,"lng":-40.8566},{"nome":"Alegria","uf":"RS","lat":-27.8345,"lng":-54.0557},{"nome":"Além Paraíba","uf":"MG","lat":-21.8797,"lng":-42.7176},{"nome":"Alenquer","uf":"PA","lat":-1.94623,"lng":-54.7384},{"nome":"Alexandria","uf":"RN","lat":-6.40533,"lng":-38.0142},{"nome":"Alexânia","uf":"GO","lat":-16.0834,"lng":-48.5076},{"nome":"Alfenas","uf":"MG","lat":-21.4256,"lng":-45.9477},{"nome":"Alfredo Chaves","uf":"ES","lat":-20.6396,"lng":-40.7543},{"nome":"Alfredo Marcondes","uf":"SP","lat":-21.9527,"lng":-51.414},{"nome":"Alfredo Vasconcelos","uf":"MG","lat":-21.1535,"lng":-43.7718},{"nome":"Alfredo Wagner","uf":"SC","lat":-27.7001,"lng":-49.3273},{"nome":"Algodão de Jandaíra","uf":"PB","lat":-6.89292,"lng":-36.0129},{"nome":"Alhandra","uf":"PB","lat":-7.42977,"lng":-34.9057},{"nome":"Aliança","uf":"PE","lat":-7.60398,"lng":-35.2227},{"nome":"Aliança do Tocantins","uf":"TO","lat":-11.3056,"lng":-48.9361},{"nome":"Almadina","uf":"BA","lat":-14.7089,"lng":-39.6415},{"nome":"Almas","uf":"TO","lat":-11.5706,"lng":-47.1792},{"nome":"Almeirim","uf":"PA","lat":-1.52904,"lng":-52.5788},{"nome":"Almenara","uf":"MG","lat":-16.1785,"lng":-40.6942},{"nome":"Almino Afonso","uf":"RN","lat":-6.1475,"lng":-37.7636},{"nome":"Almirante Tamandaré","uf":"PR","lat":-25.3188,"lng":-49.3037},{"nome":"Almirante Tamandaré do Sul","uf":"RS","lat":-28.1149,"lng":-52.9142},{"nome":"Aloândia","uf":"GO","lat":-17.7292,"lng":-49.4769},{"nome":"Alpercata","uf":"MG","lat":-18.974,"lng":-41.97},{"nome":"Alpestre","uf":"RS","lat":-27.2502,"lng":-53.0341},{"nome":"Alpinópolis","uf":"MG","lat":-20.8631,"lng":-46.3878},{"nome":"Alta Floresta","uf":"MT","lat":-9.86674,"lng":-56.0867},{"nome":"Alta Floresta D'Oeste","uf":"RO","lat":-11.9283,"lng":-61.9953},{"nome":"Altair","uf":"SP","lat":-20.5242,"lng":-49.0571},{"nome":"Altamira","uf":"PA","lat":-3.20407,"lng":-52.21},{"nome":"Altamira do Maranhão","uf":"MA","lat":-4.16598,"lng":-45.4706},{"nome":"Altamira do Paraná","uf":"PR","lat":-24.7983,"lng":-52.7128},{"nome":"Altaneira","uf":"CE","lat":-6.99837,"lng":-39.7356},{"nome":"Alterosa","uf":"MG","lat":-21.2488,"lng":-46.1387},{"nome":"Altinho","uf":"PE","lat":-8.48482,"lng":-36.0644},{"nome":"Altinópolis","uf":"SP","lat":-21.0214,"lng":-47.3712},{"nome":"Alto Alegre","uf":"SP","lat":-21.5811,"lng":-50.168},{"nome":"Alto Alegre","uf":"RR","lat":2.98858,"lng":-61.3072},{"nome":"Alto Alegre","uf":"RS","lat":-28.7769,"lng":-52.9893},{"nome":"Alto Alegre do Maranhão","uf":"MA","lat":-4.213,"lng":-44.446},{"nome":"Alto Alegre do Pindaré","uf":"MA","lat":-3.66689,"lng":-45.8421},{"nome":"Alto Alegre dos Parecis","uf":"RO","lat":-12.132,"lng":-61.835},{"nome":"Alto Araguaia","uf":"MT","lat":-17.3153,"lng":-53.2181},{"nome":"Alto Bela Vista","uf":"SC","lat":-27.4333,"lng":-51.9044},{"nome":"Alto Boa Vista","uf":"MT","lat":-11.6732,"lng":-51.3883},{"nome":"Alto Caparaó","uf":"MG","lat":-20.431,"lng":-41.8738},{"nome":"Alto do Rodrigues","uf":"RN","lat":-5.28186,"lng":-36.75},{"nome":"Alto Feliz","uf":"RS","lat":-29.3919,"lng":-51.3123},{"nome":"Alto Garças","uf":"MT","lat":-16.9462,"lng":-53.5272},{"nome":"Alto Horizonte","uf":"GO","lat":-14.1978,"lng":-49.3378},{"nome":"Alto Jequitibá","uf":"MG","lat":-20.4208,"lng":-41.967},{"nome":"Alto Longá","uf":"PI","lat":-5.25634,"lng":-42.2096},{"nome":"Alto Paraguai","uf":"MT","lat":-14.5137,"lng":-56.4776},{"nome":"Alto Paraíso","uf":"PR","lat":-26.1146,"lng":-52.7469},{"nome":"Alto Paraíso","uf":"RO","lat":-9.71429,"lng":-63.3188},{"nome":"Alto Paraíso de Goiás","uf":"GO","lat":-14.1305,"lng":-47.51},{"nome":"Alto Paraná","uf":"PR","lat":-23.1312,"lng":-52.3189},{"nome":"Alto Parnaíba","uf":"MA","lat":-9.10273,"lng":-45.9303},{"nome":"Alto Piquiri","uf":"PR","lat":-24.0224,"lng":-53.44},{"nome":"Alto Rio Doce","uf":"MG","lat":-21.0281,"lng":-43.4067},{"nome":"Alto Rio Novo","uf":"ES","lat":-19.0618,"lng":-41.0209},{"nome":"Alto Santo","uf":"CE","lat":-5.50894,"lng":-38.2743},{"nome":"Alto Taquari","uf":"MT","lat":-17.8241,"lng":-53.2792},{"nome":"Altônia","uf":"PR","lat":-23.8759,"lng":-53.8958},{"nome":"Altos","uf":"PI","lat":-5.03888,"lng":-42.4612},{"nome":"Alumínio","uf":"SP","lat":-23.5306,"lng":-47.2546},{"nome":"Alvarães","uf":"AM","lat":-3.22727,"lng":-64.8007},{"nome":"Alvarenga","uf":"MG","lat":-19.4174,"lng":-41.7317},{"nome":"Álvares Florence","uf":"SP","lat":-20.3203,"lng":-49.9141},{"nome":"Álvares Machado","uf":"SP","lat":-22.0764,"lng":-51.4722},{"nome":"Álvaro de Carvalho","uf":"SP","lat":-22.0841,"lng":-49.719},{"nome":"Alvinlândia","uf":"SP","lat":-22.4435,"lng":-49.7623},{"nome":"Alvinópolis","uf":"MG","lat":-20.1098,"lng":-43.0535},{"nome":"Alvorada","uf":"TO","lat":-12.4785,"lng":-49.1249},{"nome":"Alvorada","uf":"RS","lat":-29.9914,"lng":-51.0809},{"nome":"Alvorada D'Oeste","uf":"RO","lat":-11.3463,"lng":-62.2847},{"nome":"Alvorada de Minas","uf":"MG","lat":-18.7334,"lng":-43.3638},{"nome":"Alvorada do Gurguéia","uf":"PI","lat":-8.42418,"lng":-43.777},{"nome":"Alvorada do Norte","uf":"GO","lat":-14.4797,"lng":-46.491},{"nome":"Alvorada do Sul","uf":"PR","lat":-22.7813,"lng":-51.2297},{"nome":"Amajari","uf":"RR","lat":3.64571,"lng":-61.3692},{"nome":"Amambai","uf":"MS","lat":-23.1058,"lng":-55.2253},{"nome":"Amapá","uf":"AP","lat":2.05267,"lng":-50.7957},{"nome":"Amapá do Maranhão","uf":"MA","lat":-1.67524,"lng":-46.0024},{"nome":"Amaporã","uf":"PR","lat":-23.0943,"lng":-52.7866},{"nome":"Amaraji","uf":"PE","lat":-8.37691,"lng":-35.4501},{"nome":"Amaral Ferrador","uf":"RS","lat":-30.8756,"lng":-52.2509},{"nome":"Amaralina","uf":"GO","lat":-13.9236,"lng":-49.2962},{"nome":"Amarante","uf":"PI","lat":-6.24304,"lng":-42.8433},{"nome":"Amarante do Maranhão","uf":"MA","lat":-5.56913,"lng":-46.7473},{"nome":"Amargosa","uf":"BA","lat":-13.0215,"lng":-39.602},{"nome":"Amaturá","uf":"AM","lat":-3.37455,"lng":-68.2005},{"nome":"Amélia Rodrigues","uf":"BA","lat":-12.3914,"lng":-38.7563},{"nome":"América Dourada","uf":"BA","lat":-11.4429,"lng":-41.439},{"nome":"Americana","uf":"SP","lat":-22.7374,"lng":-47.3331},{"nome":"Americano do Brasil","uf":"GO","lat":-16.2514,"lng":-49.9831},{"nome":"Américo Brasiliense","uf":"SP","lat":-21.7288,"lng":-48.1147},{"nome":"Américo de Campos","uf":"SP","lat":-20.2985,"lng":-49.7359},{"nome":"Ametista do Sul","uf":"RS","lat":-27.3607,"lng":-53.183},{"nome":"Amontada","uf":"CE","lat":-3.36017,"lng":-39.8288},{"nome":"Amorinópolis","uf":"GO","lat":-16.6151,"lng":-51.0919},{"nome":"Amparo","uf":"PB","lat":-7.55502,"lng":-37.0628},{"nome":"Amparo","uf":"SP","lat":-22.7088,"lng":-46.772},{"nome":"Amparo de São Francisco","uf":"SE","lat":-10.1348,"lng":-36.935},{"nome":"Amparo do Serra","uf":"MG","lat":-20.5051,"lng":-42.8009},{"nome":"Ampére","uf":"PR","lat":-25.9168,"lng":-53.4686},{"nome":"Anadia","uf":"AL","lat":-9.68489,"lng":-36.3078},{"nome":"Anagé","uf":"BA","lat":-14.6151,"lng":-41.1356},{"nome":"Anahy","uf":"PR","lat":-24.6449,"lng":-53.1332},{"nome":"Anajás","uf":"PA","lat":-0.996811,"lng":-49.9354},{"nome":"Anajatuba","uf":"MA","lat":-3.26269,"lng":-44.6126},{"nome":"Analândia","uf":"SP","lat":-22.1289,"lng":-47.6619},{"nome":"Anamã","uf":"AM","lat":-3.56697,"lng":-61.3963},{"nome":"Ananás","uf":"TO","lat":-6.36437,"lng":-48.0735},{"nome":"Ananindeua","uf":"PA","lat":-1.36391,"lng":-48.3743},{"nome":"Anápolis","uf":"GO","lat":-16.3281,"lng":-48.953},{"nome":"Anapu","uf":"PA","lat":-3.46985,"lng":-51.2003},{"nome":"Anapurus","uf":"MA","lat":-3.67577,"lng":-43.1014},{"nome":"Anastácio","uf":"MS","lat":-20.4823,"lng":-55.8104},{"nome":"Anaurilândia","uf":"MS","lat":-22.1852,"lng":-52.7191},{"nome":"Anchieta","uf":"SC","lat":-26.5382,"lng":-53.3319},{"nome":"Anchieta","uf":"ES","lat":-20.7955,"lng":-40.6425},{"nome":"Andaraí","uf":"BA","lat":-12.8049,"lng":-41.3297},{"nome":"Andirá","uf":"PR","lat":-23.0533,"lng":-50.2304},{"nome":"Andorinha","uf":"BA","lat":-10.3482,"lng":-39.8391},{"nome":"Andradas","uf":"MG","lat":-22.0695,"lng":-46.5724},{"nome":"Andradina","uf":"SP","lat":-20.8948,"lng":-51.3786},{"nome":"André da Rocha","uf":"RS","lat":-28.6283,"lng":-51.5797},{"nome":"Andrelândia","uf":"MG","lat":-21.7411,"lng":-44.3117},{"nome":"Angatuba","uf":"SP","lat":-23.4917,"lng":-48.4139},{"nome":"Angelândia","uf":"MG","lat":-17.7279,"lng":-42.2641},{"nome":"Angélica","uf":"MS","lat":-22.1527,"lng":-53.7708},{"nome":"Angelim","uf":"PE","lat":-8.88429,"lng":-36.2902},{"nome":"Angelina","uf":"SC","lat":-27.5704,"lng":-48.9879},{"nome":"Angical","uf":"BA","lat":-12.0063,"lng":-44.7003},{"nome":"Angical do Piauí","uf":"PI","lat":-6.08786,"lng":-42.74},{"nome":"Angico","uf":"TO","lat":-6.39179,"lng":-47.8611},{"nome":"Angicos","uf":"RN","lat":-5.65792,"lng":-36.6094},{"nome":"Angra dos Reis","uf":"RJ","lat":-23.0011,"lng":-44.3196},{"nome":"Anguera","uf":"BA","lat":-12.1462,"lng":-39.2462},{"nome":"Ângulo","uf":"PR","lat":-23.1946,"lng":-51.9154},{"nome":"Anhanguera","uf":"GO","lat":-18.3339,"lng":-48.2204},{"nome":"Anhembi","uf":"SP","lat":-22.793,"lng":-48.1336},{"nome":"Anhumas","uf":"SP","lat":-22.2934,"lng":-51.3895},{"nome":"Anicuns","uf":"GO","lat":-16.4642,"lng":-49.9617},{"nome":"Anísio de Abreu","uf":"PI","lat":-9.18564,"lng":-43.0494},{"nome":"Anita Garibaldi","uf":"SC","lat":-27.6897,"lng":-51.1271},{"nome":"Anitápolis","uf":"SC","lat":-27.9012,"lng":-49.1316},{"nome":"Anori","uf":"AM","lat":-3.74603,"lng":-61.6575},{"nome":"Anta Gorda","uf":"RS","lat":-28.9698,"lng":-52.0102},{"nome":"Antas","uf":"BA","lat":-10.3856,"lng":-38.3401},{"nome":"Antonina","uf":"PR","lat":-25.4386,"lng":-48.7191},{"nome":"Antonina do Norte","uf":"CE","lat":-6.76919,"lng":-39.987},{"nome":"Antônio Almeida","uf":"PI","lat":-7.21276,"lng":-44.1889},{"nome":"Antônio Cardoso","uf":"BA","lat":-12.4335,"lng":-39.1176},{"nome":"Antônio Carlos","uf":"SC","lat":-27.5191,"lng":-48.766},{"nome":"Antônio Carlos","uf":"MG","lat":-21.321,"lng":-43.7451},{"nome":"Antônio Dias","uf":"MG","lat":-19.6491,"lng":-42.8732},{"nome":"Antônio Gonçalves","uf":"BA","lat":-10.5767,"lng":-40.2785},{"nome":"Antônio João","uf":"MS","lat":-22.1927,"lng":-55.9517},{"nome":"Antônio Martins","uf":"RN","lat":-6.21367,"lng":-37.8834},{"nome":"Antônio Olinto","uf":"PR","lat":-25.9804,"lng":-50.1972},{"nome":"Antônio Prado","uf":"RS","lat":-28.8565,"lng":-51.2883},{"nome":"Antônio Prado de Minas","uf":"MG","lat":-21.0192,"lng":-42.1109},{"nome":"Aparecida","uf":"PB","lat":-6.78466,"lng":-38.0803},{"nome":"Aparecida","uf":"SP","lat":-22.8495,"lng":-45.2325},{"nome":"Aparecida d'Oeste","uf":"SP","lat":-20.4487,"lng":-50.8835},{"nome":"Aparecida de Goiânia","uf":"GO","lat":-16.8198,"lng":-49.2469},{"nome":"Aparecida do Rio Doce","uf":"GO","lat":-18.2941,"lng":-51.1516},{"nome":"Aparecida do Rio Negro","uf":"TO","lat":-9.94139,"lng":-47.9638},{"nome":"Aparecida do Taboado","uf":"MS","lat":-20.0873,"lng":-51.0961},{"nome":"Aperibé","uf":"RJ","lat":-21.6252,"lng":-42.1017},{"nome":"Apiacá","uf":"ES","lat":-21.1523,"lng":-41.5693},{"nome":"Apiacás","uf":"MT","lat":-9.53981,"lng":-57.4587},{"nome":"Apiaí","uf":"SP","lat":-24.5108,"lng":-48.8443},{"nome":"Apicum-Açu","uf":"MA","lat":-1.45862,"lng":-45.0864},{"nome":"Apiúna","uf":"SC","lat":-27.0375,"lng":-49.3885},{"nome":"Apodi","uf":"RN","lat":-5.65349,"lng":-37.7946},{"nome":"Aporá","uf":"BA","lat":-11.6577,"lng":-38.0814},{"nome":"Aporé","uf":"GO","lat":-18.9607,"lng":-51.9232},{"nome":"Apuarema","uf":"BA","lat":-13.8542,"lng":-39.7501},{"nome":"Apucarana","uf":"PR","lat":-23.55,"lng":-51.4635},{"nome":"Apuí","uf":"AM","lat":-7.19409,"lng":-59.896},{"nome":"Apuiarés","uf":"CE","lat":-3.94506,"lng":-39.4359},{"nome":"Aquidabã","uf":"SE","lat":-10.278,"lng":-37.0148},{"nome":"Aquidauana","uf":"MS","lat":-20.4666,"lng":-55.7868},{"nome":"Aquiraz","uf":"CE","lat":-3.89929,"lng":-38.3896},{"nome":"Arabutã","uf":"SC","lat":-27.1587,"lng":-52.1423},{"nome":"Araçagi","uf":"PB","lat":-6.84374,"lng":-35.3737},{"nome":"Araçaí","uf":"MG","lat":-19.1955,"lng":-44.2493},{"nome":"Aracaju","uf":"SE","lat":-10.9091,"lng":-37.0677},{"nome":"Araçariguama","uf":"SP","lat":-23.4366,"lng":-47.0608},{"nome":"Araças","uf":"BA","lat":-12.22,"lng":-38.2027},{"nome":"Aracati","uf":"CE","lat":-4.55826,"lng":-37.7679},{"nome":"Aracatu","uf":"BA","lat":-14.428,"lng":-41.4648},{"nome":"Araçatuba","uf":"SP","lat":-21.2076,"lng":-50.4401},{"nome":"Araci","uf":"BA","lat":-11.3253,"lng":-38.9584},{"nome":"Aracitaba","uf":"MG","lat":-21.3446,"lng":-43.3736},{"nome":"Araçoiaba","uf":"PE","lat":-7.78391,"lng":-35.0809},{"nome":"Aracoiaba","uf":"CE","lat":-4.36872,"lng":-38.8125},{"nome":"Araçoiaba da Serra","uf":"SP","lat":-23.5029,"lng":-47.6166},{"nome":"Aracruz","uf":"ES","lat":-19.82,"lng":-40.2764},{"nome":"Araçu","uf":"GO","lat":-16.3563,"lng":-49.6804},{"nome":"Araçuaí","uf":"MG","lat":-16.8523,"lng":-42.0637},{"nome":"Aragarças","uf":"GO","lat":-15.8955,"lng":-52.2372},{"nome":"Aragoiânia","uf":"GO","lat":-16.9087,"lng":-49.4476},{"nome":"Aragominas","uf":"TO","lat":-7.16005,"lng":-48.5291},{"nome":"Araguacema","uf":"TO","lat":-8.80755,"lng":-49.5569},{"nome":"Araguaçu","uf":"TO","lat":-12.9289,"lng":-49.8231},{"nome":"Araguaiana","uf":"MT","lat":-15.7291,"lng":-51.8341},{"nome":"Araguaína","uf":"TO","lat":-7.19238,"lng":-48.2044},{"nome":"Araguainha","uf":"MT","lat":-16.857,"lng":-53.0318},{"nome":"Araguanã","uf":"TO","lat":-6.58225,"lng":-48.6395},{"nome":"Araguanã","uf":"MA","lat":-2.94644,"lng":-45.6589},{"nome":"Araguapaz","uf":"GO","lat":-15.0909,"lng":-50.6315},{"nome":"Araguari","uf":"MG","lat":-18.6456,"lng":-48.1934},{"nome":"Araguatins","uf":"TO","lat":-5.64659,"lng":-48.1232},{"nome":"Araioses","uf":"MA","lat":-2.89091,"lng":-41.905},{"nome":"Aral Moreira","uf":"MS","lat":-22.9385,"lng":-55.6334},{"nome":"Aramari","uf":"BA","lat":-12.0884,"lng":-38.4969},{"nome":"Arambaré","uf":"RS","lat":-30.9092,"lng":-51.5046},{"nome":"Arame","uf":"MA","lat":-4.88347,"lng":-46.0032},{"nome":"Aramina","uf":"SP","lat":-20.0882,"lng":-47.7873},{"nome":"Arandu","uf":"SP","lat":-23.1386,"lng":-49.0487},{"nome":"Arantina","uf":"MG","lat":-21.9102,"lng":-44.2555},{"nome":"Arapeí","uf":"SP","lat":-22.6717,"lng":-44.4441},{"nome":"Arapiraca","uf":"AL","lat":-9.75487,"lng":-36.6615},{"nome":"Arapoema","uf":"TO","lat":-7.65463,"lng":-49.0637},{"nome":"Araponga","uf":"MG","lat":-20.6686,"lng":-42.5178},{"nome":"Arapongas","uf":"PR","lat":-23.4153,"lng":-51.4259},{"nome":"Araporã","uf":"MG","lat":-18.4357,"lng":-49.1847},{"nome":"Arapoti","uf":"PR","lat":-24.1548,"lng":-49.8285},{"nome":"Arapuã","uf":"PR","lat":-24.3132,"lng":-51.7856},{"nome":"Arapuá","uf":"MG","lat":-19.0268,"lng":-46.1484},{"nome":"Araputanga","uf":"MT","lat":-15.4641,"lng":-58.3425},{"nome":"Araquari","uf":"SC","lat":-26.3754,"lng":-48.7188},{"nome":"Arara","uf":"PB","lat":-6.82813,"lng":-35.7552},{"nome":"Araranguá","uf":"SC","lat":-28.9356,"lng":-49.4918},{"nome":"Araraquara","uf":"SP","lat":-21.7845,"lng":-48.178},{"nome":"Araras","uf":"SP","lat":-22.3572,"lng":-47.3842},{"nome":"Ararendá","uf":"CE","lat":-4.74567,"lng":-40.831},{"nome":"Arari","uf":"MA","lat":-3.45214,"lng":-44.7665},{"nome":"Araricá","uf":"RS","lat":-29.6168,"lng":-50.9291},{"nome":"Araripe","uf":"CE","lat":-7.21319,"lng":-40.1359},{"nome":"Araripina","uf":"PE","lat":-7.57073,"lng":-40.494},{"nome":"Araruama","uf":"RJ","lat":-22.8697,"lng":-42.3326},{"nome":"Araruna","uf":"PR","lat":-23.9315,"lng":-52.5021},{"nome":"Araruna","uf":"PB","lat":-6.54848,"lng":-35.7498},{"nome":"Arataca","uf":"BA","lat":-15.2651,"lng":-39.419},{"nome":"Aratiba","uf":"RS","lat":-27.3978,"lng":-52.2975},{"nome":"Aratuba","uf":"CE","lat":-4.41229,"lng":-39.0471},{"nome":"Aratuípe","uf":"BA","lat":-13.0716,"lng":-39.0038},{"nome":"Arauá","uf":"SE","lat":-11.2614,"lng":-37.6201},{"nome":"Araucária","uf":"PR","lat":-25.5859,"lng":-49.4047},{"nome":"Araújos","uf":"MG","lat":-19.9405,"lng":-45.1671},{"nome":"Araxá","uf":"MG","lat":-19.5902,"lng":-46.9438},{"nome":"Arceburgo","uf":"MG","lat":-21.359,"lng":-46.9401},{"nome":"Arco-Íris","uf":"SP","lat":-21.7728,"lng":-50.466},{"nome":"Arcos","uf":"MG","lat":-20.2863,"lng":-45.5373},{"nome":"Arcoverde","uf":"PE","lat":-8.41519,"lng":-37.0577},{"nome":"Areado","uf":"MG","lat":-21.3572,"lng":-46.1421},{"nome":"Areal","uf":"RJ","lat":-22.2283,"lng":-43.1118},{"nome":"Arealva","uf":"SP","lat":-22.031,"lng":-48.9135},{"nome":"Areia","uf":"PB","lat":-6.96396,"lng":-35.6977},{"nome":"Areia Branca","uf":"RN","lat":-4.95254,"lng":-37.1252},{"nome":"Areia Branca","uf":"SE","lat":-10.758,"lng":-37.3251},{"nome":"Areia de Baraúnas","uf":"PB","lat":-7.11702,"lng":-36.9404},{"nome":"Areial","uf":"PB","lat":-7.04789,"lng":-35.9313},{"nome":"Areias","uf":"SP","lat":-22.5786,"lng":-44.6992},{"nome":"Areiópolis","uf":"SP","lat":-22.6672,"lng":-48.6681},{"nome":"Arenápolis","uf":"MT","lat":-14.4472,"lng":-56.8437},{"nome":"Arenópolis","uf":"GO","lat":-16.3837,"lng":-51.5563},{"nome":"Arês","uf":"RN","lat":-6.18831,"lng":-35.1608},{"nome":"Argirita","uf":"MG","lat":-21.6083,"lng":-42.8292},{"nome":"Aricanduva","uf":"MG","lat":-17.8666,"lng":-42.5533},{"nome":"Arinos","uf":"MG","lat":-15.9187,"lng":-46.1043},{"nome":"Aripuanã","uf":"MT","lat":-10.1723,"lng":-59.4568},{"nome":"Ariquemes","uf":"RO","lat":-9.90571,"lng":-63.0325},{"nome":"Ariranha","uf":"SP","lat":-21.1872,"lng":-48.7904},{"nome":"Ariranha do Ivaí","uf":"PR","lat":-24.3857,"lng":-51.5839},{"nome":"Armação dos Búzios","uf":"RJ","lat":-22.7528,"lng":-41.8846},{"nome":"Armazém","uf":"SC","lat":-28.2448,"lng":-49.0215},{"nome":"Arneiroz","uf":"CE","lat":-6.3165,"lng":-40.1653},{"nome":"Aroazes","uf":"PI","lat":-6.11022,"lng":-41.7822},{"nome":"Aroeiras","uf":"PB","lat":-7.54473,"lng":-35.7066},{"nome":"Aroeiras do Itaim","uf":"PI","lat":-7.24502,"lng":-41.5325},{"nome":"Arraial","uf":"PI","lat":-6.65075,"lng":-42.5418},{"nome":"Arraial do Cabo","uf":"RJ","lat":-22.9774,"lng":-42.0267},{"nome":"Arraias","uf":"TO","lat":-12.9287,"lng":-46.9359},{"nome":"Arroio do Meio","uf":"RS","lat":-29.4014,"lng":-51.9557},{"nome":"Arroio do Padre","uf":"RS","lat":-31.4389,"lng":-52.4246},{"nome":"Arroio do Sal","uf":"RS","lat":-29.5439,"lng":-49.8895},{"nome":"Arroio do Tigre","uf":"RS","lat":-29.3348,"lng":-53.0966},{"nome":"Arroio dos Ratos","uf":"RS","lat":-30.0875,"lng":-51.7275},{"nome":"Arroio Grande","uf":"RS","lat":-32.2327,"lng":-53.0862},{"nome":"Arroio Trinta","uf":"SC","lat":-26.9257,"lng":-51.3407},{"nome":"Artur Nogueira","uf":"SP","lat":-22.5727,"lng":-47.1727},{"nome":"Aruanã","uf":"GO","lat":-14.9166,"lng":-51.075},{"nome":"Arujá","uf":"SP","lat":-23.3965,"lng":-46.32},{"nome":"Arvoredo","uf":"SC","lat":-27.0748,"lng":-52.4543},{"nome":"Arvorezinha","uf":"RS","lat":-28.8737,"lng":-52.1781},{"nome":"Ascurra","uf":"SC","lat":-26.9548,"lng":-49.3783},{"nome":"Aspásia","uf":"SP","lat":-20.16,"lng":-50.728},{"nome":"Assaí","uf":"PR","lat":-23.3697,"lng":-50.8459},{"nome":"Assaré","uf":"CE","lat":-6.8669,"lng":-39.8689},{"nome":"Assis","uf":"SP","lat":-22.66,"lng":-50.4183},{"nome":"Assis Brasil","uf":"AC","lat":-10.9298,"lng":-69.5738},{"nome":"Assis Chateaubriand","uf":"PR","lat":-24.4168,"lng":-53.5213},{"nome":"Assunção","uf":"PB","lat":-7.07231,"lng":-36.725},{"nome":"Assunção do Piauí","uf":"PI","lat":-5.865,"lng":-41.0389},{"nome":"Astolfo Dutra","uf":"MG","lat":-21.3184,"lng":-42.8572},{"nome":"Astorga","uf":"PR","lat":-23.2318,"lng":-51.6668},{"nome":"Atalaia","uf":"PR","lat":-23.1517,"lng":-52.0551},{"nome":"Atalaia","uf":"AL","lat":-9.5119,"lng":-36.0086},{"nome":"Atalaia do Norte","uf":"AM","lat":-4.37055,"lng":-70.1967},{"nome":"Atalanta","uf":"SC","lat":-27.4219,"lng":-49.7789},{"nome":"Ataléia","uf":"MG","lat":-18.0438,"lng":-41.1149},{"nome":"Atibaia","uf":"SP","lat":-23.1171,"lng":-46.5563},{"nome":"Atilio Vivacqua","uf":"ES","lat":-20.913,"lng":-41.1986},{"nome":"Augustinópolis","uf":"TO","lat":-5.46863,"lng":-47.8863},{"nome":"Augusto Corrêa","uf":"PA","lat":-1.05109,"lng":-46.6147},{"nome":"Augusto de Lima","uf":"MG","lat":-18.0997,"lng":-44.2655},{"nome":"Augusto Pestana","uf":"RS","lat":-28.5172,"lng":-53.9883},{"nome":"Augusto Severo (Campo Grande)","uf":"RN","lat":-5.86206,"lng":-37.3135},{"nome":"Áurea","uf":"RS","lat":-27.6936,"lng":-52.0505},{"nome":"Aurelino Leal","uf":"BA","lat":-14.321,"lng":-39.329},{"nome":"Auriflama","uf":"SP","lat":-20.6836,"lng":-50.5572},{"nome":"Aurilândia","uf":"GO","lat":-16.6773,"lng":-50.4641},{"nome":"Aurora","uf":"CE","lat":-6.93349,"lng":-38.9742},{"nome":"Aurora","uf":"SC","lat":-27.3098,"lng":-49.6295},{"nome":"Aurora do Pará","uf":"PA","lat":-2.14898,"lng":-47.5677},{"nome":"Aurora do Tocantins","uf":"TO","lat":-12.7105,"lng":-46.4076},{"nome":"Autazes","uf":"AM","lat":-3.58574,"lng":-59.1256},{"nome":"Avaí","uf":"SP","lat":-22.1514,"lng":-49.3356},{"nome":"Avanhandava","uf":"SP","lat":-21.4584,"lng":-49.9509},{"nome":"Avaré","uf":"SP","lat":-23.1067,"lng":-48.9251},{"nome":"Aveiro","uf":"PA","lat":-3.60841,"lng":-55.3199},{"nome":"Avelino Lopes","uf":"PI","lat":-10.1345,"lng":-43.9563},{"nome":"Avelinópolis","uf":"GO","lat":-16.4672,"lng":-49.7579},{"nome":"Axixá","uf":"MA","lat":-2.83939,"lng":-44.062},{"nome":"Axixá do Tocantins","uf":"TO","lat":-5.61275,"lng":-47.7701},{"nome":"Babaçulândia","uf":"TO","lat":-7.20923,"lng":-47.7613},{"nome":"Bacabal","uf":"MA","lat":-4.22447,"lng":-44.7832},{"nome":"Bacabeira","uf":"MA","lat":-2.96452,"lng":-44.3164},{"nome":"Bacuri","uf":"MA","lat":-1.6965,"lng":-45.1328},{"nome":"Bacurituba","uf":"MA","lat":-2.71,"lng":-44.7329},{"nome":"Bady Bassitt","uf":"SP","lat":-20.9197,"lng":-49.4385},{"nome":"Baependi","uf":"MG","lat":-21.957,"lng":-44.8874},{"nome":"Bagé","uf":"RS","lat":-31.3297,"lng":-54.0999},{"nome":"Bagre","uf":"PA","lat":-1.90057,"lng":-50.1987},{"nome":"Baía da Traição","uf":"PB","lat":-6.69209,"lng":-34.9381},{"nome":"Baía Formosa","uf":"RN","lat":-6.37161,"lng":-35.0033},{"nome":"Baianópolis","uf":"BA","lat":-12.3016,"lng":-44.5388},{"nome":"Baião","uf":"PA","lat":-2.79021,"lng":-49.6694},{"nome":"Baixa Grande","uf":"BA","lat":-11.9519,"lng":-40.169},{"nome":"Baixa Grande do Ribeiro","uf":"PI","lat":-7.84903,"lng":-45.219},{"nome":"Baixio","uf":"CE","lat":-6.71945,"lng":-38.7134},{"nome":"Baixo Guandu","uf":"ES","lat":-19.5213,"lng":-41.0109},{"nome":"Balbinos","uf":"SP","lat":-21.8963,"lng":-49.3619},{"nome":"Baldim","uf":"MG","lat":-19.2832,"lng":-43.9613},{"nome":"Baliza","uf":"GO","lat":-16.1966,"lng":-52.5393},{"nome":"Balneário Arroio do Silva","uf":"SC","lat":-28.9806,"lng":-49.4237},{"nome":"Balneário Barra do Sul","uf":"SC","lat":-26.4597,"lng":-48.6123},{"nome":"Balneário Camboriú","uf":"SC","lat":-26.9926,"lng":-48.6352},{"nome":"Balneário Gaivota","uf":"SC","lat":-29.1527,"lng":-49.5841},{"nome":"Balneário Piçarras","uf":"SC","lat":-26.7639,"lng":-48.6717},{"nome":"Balneário Pinhal","uf":"RS","lat":-30.2419,"lng":-50.2337},{"nome":"Balneário Rincão","uf":"SC","lat":-28.8314,"lng":-49.2352},{"nome":"Balsa Nova","uf":"PR","lat":-25.5804,"lng":-49.6291},{"nome":"Bálsamo","uf":"SP","lat":-20.7348,"lng":-49.5865},{"nome":"Balsas","uf":"MA","lat":-7.53214,"lng":-46.0372},{"nome":"Bambuí","uf":"MG","lat":-20.0166,"lng":-45.9754},{"nome":"Banabuiú","uf":"CE","lat":-5.30454,"lng":-38.9132},{"nome":"Bananal","uf":"SP","lat":-22.6819,"lng":-44.3281},{"nome":"Bananeiras","uf":"PB","lat":-6.74775,"lng":-35.6246},{"nome":"Bandeira","uf":"MG","lat":-15.8783,"lng":-40.5622},{"nome":"Bandeira do Sul","uf":"MG","lat":-21.7308,"lng":-46.3833},{"nome":"Bandeirante","uf":"SC","lat":-26.7705,"lng":-53.6413},{"nome":"Bandeirantes","uf":"MS","lat":-19.9275,"lng":-54.3585},{"nome":"Bandeirantes","uf":"PR","lat":-23.1078,"lng":-50.3704},{"nome":"Bandeirantes do Tocantins","uf":"TO","lat":-7.75612,"lng":-48.5836},{"nome":"Bannach","uf":"PA","lat":-7.34779,"lng":-50.3959},{"nome":"Banzaê","uf":"BA","lat":-10.5788,"lng":-38.6212},{"nome":"Barão","uf":"RS","lat":-29.3725,"lng":-51.4949},{"nome":"Barão de Antonina","uf":"SP","lat":-23.6284,"lng":-49.5634},{"nome":"Barão de Cocais","uf":"MG","lat":-19.9389,"lng":-43.4755},{"nome":"Barão de Cotegipe","uf":"RS","lat":-27.6208,"lng":-52.3798},{"nome":"Barão de Grajaú","uf":"MA","lat":-6.74463,"lng":-43.0261},{"nome":"Barão de Melgaço","uf":"MT","lat":-16.2067,"lng":-55.9623},{"nome":"Barão de Monte Alto","uf":"MG","lat":-21.2444,"lng":-42.2372},{"nome":"Barão do Triunfo","uf":"RS","lat":-30.3891,"lng":-51.7384},{"nome":"Baraúna","uf":"RN","lat":-5.06977,"lng":-37.6129},{"nome":"Baraúna","uf":"PB","lat":-6.63484,"lng":-36.2601},{"nome":"Barbacena","uf":"MG","lat":-21.2214,"lng":-43.7703},{"nome":"Barbalha","uf":"CE","lat":-7.2982,"lng":-39.3021},{"nome":"Barbosa","uf":"SP","lat":-21.2657,"lng":-49.9518},{"nome":"Barbosa Ferraz","uf":"PR","lat":-24.0334,"lng":-52.004},{"nome":"Barcarena","uf":"PA","lat":-1.51187,"lng":-48.6195},{"nome":"Barcelona","uf":"RN","lat":-5.94284,"lng":-35.9247},{"nome":"Barcelos","uf":"AM","lat":-0.983373,"lng":-62.9311},{"nome":"Bariri","uf":"SP","lat":-22.073,"lng":-48.7438},{"nome":"Barra","uf":"BA","lat":-11.0859,"lng":-43.1459},{"nome":"Barra Bonita","uf":"SC","lat":-26.654,"lng":-53.44},{"nome":"Barra Bonita","uf":"SP","lat":-22.4909,"lng":-48.5583},{"nome":"Barra D'Alcântara","uf":"PI","lat":-6.51645,"lng":-42.1146},{"nome":"Barra da Estiva","uf":"BA","lat":-13.6237,"lng":-41.3347},{"nome":"Barra de Guabiraba","uf":"PE","lat":-8.42075,"lng":-35.6585},{"nome":"Barra de Santa Rosa","uf":"PB","lat":-6.71816,"lng":-36.0671},{"nome":"Barra de Santana","uf":"PB","lat":-7.51809,"lng":-35.9913},{"nome":"Barra de Santo Antônio","uf":"AL","lat":-9.4023,"lng":-35.5101},{"nome":"Barra de São Francisco","uf":"ES","lat":-18.7548,"lng":-40.8965},{"nome":"Barra de São Miguel","uf":"PB","lat":-7.74603,"lng":-36.3209},{"nome":"Barra de São Miguel","uf":"AL","lat":-9.83842,"lng":-35.9057},{"nome":"Barra do Bugres","uf":"MT","lat":-15.0702,"lng":-57.1878},{"nome":"Barra do Chapéu","uf":"SP","lat":-24.4722,"lng":-49.0238},{"nome":"Barra do Choça","uf":"BA","lat":-14.8654,"lng":-40.5791},{"nome":"Barra do Corda","uf":"MA","lat":-5.49682,"lng":-45.2485},{"nome":"Barra do Garças","uf":"MT","lat":-15.8804,"lng":-52.264},{"nome":"Barra do Guarita","uf":"RS","lat":-27.1927,"lng":-53.7109},{"nome":"Barra do Jacaré","uf":"PR","lat":-23.116,"lng":-50.1842},{"nome":"Barra do Mendes","uf":"BA","lat":-11.81,"lng":-42.059},{"nome":"Barra do Ouro","uf":"TO","lat":-7.69593,"lng":-47.6776},{"nome":"Barra do Piraí","uf":"RJ","lat":-22.4715,"lng":-43.8269},{"nome":"Barra do Quaraí","uf":"RS","lat":-30.2029,"lng":-57.5497},{"nome":"Barra do Ribeiro","uf":"RS","lat":-30.2939,"lng":-51.3014},{"nome":"Barra do Rio Azul","uf":"RS","lat":-27.4069,"lng":-52.4084},{"nome":"Barra do Rocha","uf":"BA","lat":-14.2,"lng":-39.5991},{"nome":"Barra do Turvo","uf":"SP","lat":-24.759,"lng":-48.5013},{"nome":"Barra dos Coqueiros","uf":"SE","lat":-10.8996,"lng":-37.0323},{"nome":"Barra Funda","uf":"RS","lat":-27.9205,"lng":-53.0391},{"nome":"Barra Longa","uf":"MG","lat":-20.2869,"lng":-43.0402},{"nome":"Barra Mansa","uf":"RJ","lat":-22.5481,"lng":-44.1752},{"nome":"Barra Velha","uf":"SC","lat":-26.637,"lng":-48.6933},{"nome":"Barracão","uf":"RS","lat":-27.6739,"lng":-51.4585},{"nome":"Barracão","uf":"PR","lat":-26.2502,"lng":-53.6324},{"nome":"Barras","uf":"PI","lat":-4.24468,"lng":-42.2922},{"nome":"Barreira","uf":"CE","lat":-4.28921,"lng":-38.6429},{"nome":"Barreiras","uf":"BA","lat":-12.1439,"lng":-44.9968},{"nome":"Barreiras do Piauí","uf":"PI","lat":-9.9296,"lng":-45.4702},{"nome":"Barreirinha","uf":"AM","lat":-2.79886,"lng":-57.0679},{"nome":"Barreirinhas","uf":"MA","lat":-2.75863,"lng":-42.8232},{"nome":"Barreiros","uf":"PE","lat":-8.81605,"lng":-35.1832},{"nome":"Barretos","uf":"SP","lat":-20.5531,"lng":-48.5698},{"nome":"Barrinha","uf":"SP","lat":-21.1864,"lng":-48.1636},{"nome":"Barro","uf":"CE","lat":-7.17188,"lng":-38.7741},{"nome":"Barro Alto","uf":"BA","lat":-11.7605,"lng":-41.9054},{"nome":"Barro Alto","uf":"GO","lat":-14.9658,"lng":-48.9086},{"nome":"Barro Duro","uf":"PI","lat":-5.81673,"lng":-42.5147},{"nome":"Barro Preto","uf":"BA","lat":-14.7948,"lng":-39.476},{"nome":"Barrocas","uf":"BA","lat":-11.5272,"lng":-39.0776},{"nome":"Barrolândia","uf":"TO","lat":-9.83404,"lng":-48.7252},{"nome":"Barroquinha","uf":"CE","lat":-3.02051,"lng":-41.1358},{"nome":"Barros Cassal","uf":"RS","lat":-29.0947,"lng":-52.5836},{"nome":"Barroso","uf":"MG","lat":-21.1907,"lng":-43.972},{"nome":"Barueri","uf":"SP","lat":-23.5057,"lng":-46.879},{"nome":"Bastos","uf":"SP","lat":-21.921,"lng":-50.7357},{"nome":"Bataguassu","uf":"MS","lat":-21.7159,"lng":-52.4221},{"nome":"Batalha","uf":"PI","lat":-4.0223,"lng":-42.0787},{"nome":"Batalha","uf":"AL","lat":-9.6742,"lng":-37.133},{"nome":"Batatais","uf":"SP","lat":-20.8929,"lng":-47.5921},{"nome":"Batayporã","uf":"MS","lat":-22.2944,"lng":-53.2705},{"nome":"Baturité","uf":"CE","lat":-4.32598,"lng":-38.8812},{"nome":"Bauru","uf":"SP","lat":-22.3246,"lng":-49.0871},{"nome":"Bayeux","uf":"PB","lat":-7.1238,"lng":-34.9293},{"nome":"Bebedouro","uf":"SP","lat":-20.9491,"lng":-48.4791},{"nome":"Beberibe","uf":"CE","lat":-4.17741,"lng":-38.1271},{"nome":"Bela Cruz","uf":"CE","lat":-3.04996,"lng":-40.1671},{"nome":"Bela Vista","uf":"MS","lat":-22.1073,"lng":-56.5263},{"nome":"Bela Vista da Caroba","uf":"PR","lat":-25.8842,"lng":-53.6725},{"nome":"Bela Vista de Goiás","uf":"GO","lat":-16.9693,"lng":-48.9513},{"nome":"Bela Vista de Minas","uf":"MG","lat":-19.8302,"lng":-43.0922},{"nome":"Bela Vista do Maranhão","uf":"MA","lat":-3.72618,"lng":-45.3075},{"nome":"Bela Vista do Paraíso","uf":"PR","lat":-22.9937,"lng":-51.1927},{"nome":"Bela Vista do Piauí","uf":"PI","lat":-7.98809,"lng":-41.8675},{"nome":"Bela Vista do Toldo","uf":"SC","lat":-26.2746,"lng":-50.4664},{"nome":"Belágua","uf":"MA","lat":-3.15485,"lng":-43.5122},{"nome":"Belém","uf":"PA","lat":-1.4554,"lng":-48.4898},{"nome":"Belém","uf":"PB","lat":-6.74261,"lng":-35.5166},{"nome":"Belém","uf":"AL","lat":-9.57047,"lng":-36.4904},{"nome":"Belém de Maria","uf":"PE","lat":-8.62504,"lng":-35.8335},{"nome":"Belém do Brejo do Cruz","uf":"PB","lat":-6.18515,"lng":-37.5348},{"nome":"Belém do Piauí","uf":"PI","lat":-7.36652,"lng":-40.9688},{"nome":"Belém do São Francisco","uf":"PE","lat":-8.75046,"lng":-38.9623},{"nome":"Belford Roxo","uf":"RJ","lat":-22.764,"lng":-43.3992},{"nome":"Belmiro Braga","uf":"MG","lat":-21.944,"lng":-43.4084},{"nome":"Belmonte","uf":"SC","lat":-26.843,"lng":-53.5758},{"nome":"Belmonte","uf":"BA","lat":-15.8608,"lng":-38.8758},{"nome":"Belo Campo","uf":"BA","lat":-15.0334,"lng":-41.2652},{"nome":"Belo Horizonte","uf":"MG","lat":-19.9102,"lng":-43.9266},{"nome":"Belo Jardim","uf":"PE","lat":-8.3313,"lng":-36.4258},{"nome":"Belo Monte","uf":"AL","lat":-9.82272,"lng":-37.277},{"nome":"Belo Oriente","uf":"MG","lat":-19.2199,"lng":-42.4828},{"nome":"Belo Vale","uf":"MG","lat":-20.4077,"lng":-44.0275},{"nome":"Belterra","uf":"PA","lat":-2.63609,"lng":-54.9374},{"nome":"Beneditinos","uf":"PI","lat":-5.45676,"lng":-42.3638},{"nome":"Benedito Leite","uf":"MA","lat":-7.21037,"lng":-44.5577},{"nome":"Benedito Novo","uf":"SC","lat":-26.781,"lng":-49.3593},{"nome":"Benevides","uf":"PA","lat":-1.36183,"lng":-48.2434},{"nome":"Benjamin Constant","uf":"AM","lat":-4.37768,"lng":-70.0342},{"nome":"Benjamin Constant do Sul","uf":"RS","lat":-27.5086,"lng":-52.5995},{"nome":"Bento de Abreu","uf":"SP","lat":-21.2686,"lng":-50.814},{"nome":"Bento Fernandes","uf":"RN","lat":-5.69906,"lng":-35.813},{"nome":"Bento Gonçalves","uf":"RS","lat":-29.1662,"lng":-51.5165},{"nome":"Bequimão","uf":"MA","lat":-2.44162,"lng":-44.7842},{"nome":"Berilo","uf":"MG","lat":-16.9567,"lng":-42.4606},{"nome":"Berizal","uf":"MG","lat":-15.61,"lng":-41.7432},{"nome":"Bernardino Batista","uf":"PB","lat":-6.44572,"lng":-38.5521},{"nome":"Bernardino de Campos","uf":"SP","lat":-23.0164,"lng":-49.4679},{"nome":"Bernardo do Mearim","uf":"MA","lat":-4.62666,"lng":-44.7608},{"nome":"Bernardo Sayão","uf":"TO","lat":-7.87481,"lng":-48.8893},{"nome":"Bertioga","uf":"SP","lat":-23.8486,"lng":-46.1396},{"nome":"Bertolínia","uf":"PI","lat":-7.63338,"lng":-43.9498},{"nome":"Bertópolis","uf":"MG","lat":-17.059,"lng":-40.58},{"nome":"Beruri","uf":"AM","lat":-3.89874,"lng":-61.3616},{"nome":"Betânia","uf":"PE","lat":-8.26787,"lng":-38.0345},{"nome":"Betânia do Piauí","uf":"PI","lat":-8.14376,"lng":-40.7989},{"nome":"Betim","uf":"MG","lat":-19.9668,"lng":-44.2008},{"nome":"Bezerros","uf":"PE","lat":-8.2328,"lng":-35.796},{"nome":"Bias Fortes","uf":"MG","lat":-21.602,"lng":-43.7574},{"nome":"Bicas","uf":"MG","lat":-21.7232,"lng":-43.056},{"nome":"Biguaçu","uf":"SC","lat":-27.496,"lng":-48.6598},{"nome":"Bilac","uf":"SP","lat":-21.404,"lng":-50.4746},{"nome":"Biquinhas","uf":"MG","lat":-18.7754,"lng":-45.4974},{"nome":"Birigui","uf":"SP","lat":-21.291,"lng":-50.3432},{"nome":"Biritiba-Mirim","uf":"SP","lat":-23.5698,"lng":-46.0407},{"nome":"Biritinga","uf":"BA","lat":-11.6072,"lng":-38.8051},{"nome":"Bituruna","uf":"PR","lat":-26.1607,"lng":-51.5518},{"nome":"Blumenau","uf":"SC","lat":-26.9155,"lng":-49.0709},{"nome":"Boa Esperança","uf":"PR","lat":-24.2467,"lng":-52.7876},{"nome":"Boa Esperança","uf":"MG","lat":-21.0927,"lng":-45.5612},{"nome":"Boa Esperança","uf":"ES","lat":-18.5395,"lng":-40.3025},{"nome":"Boa Esperança do Iguaçu","uf":"PR","lat":-25.6324,"lng":-53.2108},{"nome":"Boa Esperança do Norte","uf":"MT","lat":-13.5067,"lng":-55.1486},{"nome":"Boa Esperança do Sul","uf":"SP","lat":-21.9918,"lng":-48.3906},{"nome":"Boa Hora","uf":"PI","lat":-4.41404,"lng":-42.1357},{"nome":"Boa Nova","uf":"BA","lat":-14.3598,"lng":-40.2064},{"nome":"Boa Ventura","uf":"PB","lat":-7.40982,"lng":-38.2113},{"nome":"Boa Ventura de São Roque","uf":"PR","lat":-24.8688,"lng":-51.6276},{"nome":"Boa Viagem","uf":"CE","lat":-5.11258,"lng":-39.7337},{"nome":"Boa Vista","uf":"RR","lat":2.82384,"lng":-60.6753},{"nome":"Boa Vista","uf":"PB","lat":-7.26365,"lng":-36.2357},{"nome":"Boa Vista da Aparecida","uf":"PR","lat":-25.4308,"lng":-53.4117},{"nome":"Boa Vista das Missões","uf":"RS","lat":-27.6671,"lng":-53.3102},{"nome":"Boa Vista do Buricá","uf":"RS","lat":-27.6693,"lng":-54.1082},{"nome":"Boa Vista do Cadeado","uf":"RS","lat":-28.5791,"lng":-53.8108},{"nome":"Boa Vista do Gurupi","uf":"MA","lat":-1.77614,"lng":-46.3002},{"nome":"Boa Vista do Incra","uf":"RS","lat":-28.8185,"lng":-53.391},{"nome":"Boa Vista do Ramos","uf":"AM","lat":-2.97409,"lng":-57.5873},{"nome":"Boa Vista do Sul","uf":"RS","lat":-29.3544,"lng":-51.6687},{"nome":"Boa Vista do Tupim","uf":"BA","lat":-12.6498,"lng":-40.6064},{"nome":"Boca da Mata","uf":"AL","lat":-9.64308,"lng":-36.2125},{"nome":"Boca do Acre","uf":"AM","lat":-8.74232,"lng":-67.3919},{"nome":"Bocaina","uf":"PI","lat":-6.94124,"lng":-41.3168},{"nome":"Bocaina","uf":"SP","lat":-22.1365,"lng":-48.523},{"nome":"Bocaina de Minas","uf":"MG","lat":-22.1697,"lng":-44.3972},{"nome":"Bocaina do Sul","uf":"SC","lat":-27.7455,"lng":-49.9423},{"nome":"Bocaiúva","uf":"MG","lat":-17.1135,"lng":-43.8104},{"nome":"Bocaiúva do Sul","uf":"PR","lat":-25.2066,"lng":-49.1141},{"nome":"Bodó","uf":"RN","lat":-5.98027,"lng":-36.4167},{"nome":"Bodocó","uf":"PE","lat":-7.77759,"lng":-39.9338},{"nome":"Bodoquena","uf":"MS","lat":-20.537,"lng":-56.7127},{"nome":"Bofete","uf":"SP","lat":-23.1055,"lng":-48.2582},{"nome":"Boituva","uf":"SP","lat":-23.2855,"lng":-47.6786},{"nome":"Bom Conselho","uf":"PE","lat":-9.16919,"lng":-36.6857},{"nome":"Bom Despacho","uf":"MG","lat":-19.7386,"lng":-45.2622},{"nome":"Bom Jardim","uf":"RJ","lat":-22.1545,"lng":-42.4251},{"nome":"Bom Jardim","uf":"PE","lat":-7.79695,"lng":-35.5784},{"nome":"Bom Jardim","uf":"MA","lat":-3.54129,"lng":-45.606},{"nome":"Bom Jardim da Serra","uf":"SC","lat":-28.3377,"lng":-49.6373},{"nome":"Bom Jardim de Goiás","uf":"GO","lat":-16.2063,"lng":-52.1728},{"nome":"Bom Jardim de Minas","uf":"MG","lat":-21.9479,"lng":-44.1885},{"nome":"Bom Jesus","uf":"SC","lat":-26.7326,"lng":-52.3919},{"nome":"Bom Jesus","uf":"RS","lat":-28.6697,"lng":-50.4295},{"nome":"Bom Jesus","uf":"PI","lat":-9.07124,"lng":-44.359},{"nome":"Bom Jesus","uf":"RN","lat":-5.98648,"lng":-35.5792},{"nome":"Bom Jesus","uf":"PB","lat":-6.81601,"lng":-38.6453},{"nome":"Bom Jesus da Lapa","uf":"BA","lat":-13.2506,"lng":-43.4108},{"nome":"Bom Jesus da Penha","uf":"MG","lat":-21.0148,"lng":-46.5174},{"nome":"Bom Jesus da Serra","uf":"BA","lat":-14.3663,"lng":-40.5126},{"nome":"Bom Jesus das Selvas","uf":"MA","lat":-4.47638,"lng":-46.8641},{"nome":"Bom Jesus de Goiás","uf":"GO","lat":-18.2173,"lng":-49.74},{"nome":"Bom Jesus do Amparo","uf":"MG","lat":-19.7054,"lng":-43.4782},{"nome":"Bom Jesus do Araguaia","uf":"MT","lat":-12.1706,"lng":-51.5032},{"nome":"Bom Jesus do Galho","uf":"MG","lat":-19.836,"lng":-42.3165},{"nome":"Bom Jesus do Itabapoana","uf":"RJ","lat":-21.1449,"lng":-41.6822},{"nome":"Bom Jesus do Norte","uf":"ES","lat":-21.1173,"lng":-41.6731},{"nome":"Bom Jesus do Oeste","uf":"SC","lat":-26.6927,"lng":-53.0967},{"nome":"Bom Jesus do Sul","uf":"PR","lat":-26.1958,"lng":-53.5955},{"nome":"Bom Jesus do Tocantins","uf":"PA","lat":-5.0424,"lng":-48.6047},{"nome":"Bom Jesus do Tocantins","uf":"TO","lat":-8.96306,"lng":-48.165},{"nome":"Bom Jesus dos Perdões","uf":"SP","lat":-23.1356,"lng":-46.4675},{"nome":"Bom Lugar","uf":"MA","lat":-4.37311,"lng":-45.0326},{"nome":"Bom Princípio","uf":"RS","lat":-29.4856,"lng":-51.3548},{"nome":"Bom Princípio do Piauí","uf":"PI","lat":-3.19631,"lng":-41.6403},{"nome":"Bom Progresso","uf":"RS","lat":-27.5399,"lng":-53.8716},{"nome":"Bom Repouso","uf":"MG","lat":-22.4675,"lng":-46.144},{"nome":"Bom Retiro","uf":"SC","lat":-27.799,"lng":-49.487},{"nome":"Bom Retiro do Sul","uf":"RS","lat":-29.6071,"lng":-51.9456},{"nome":"Bom Sucesso","uf":"MG","lat":-21.0329,"lng":-44.7537},{"nome":"Bom Sucesso","uf":"PR","lat":-23.7063,"lng":-51.7671},{"nome":"Bom Sucesso","uf":"PB","lat":-6.44176,"lng":-37.9234},{"nome":"Bom Sucesso de Itararé","uf":"SP","lat":-24.3155,"lng":-49.1451},{"nome":"Bom Sucesso do Sul","uf":"PR","lat":-26.0731,"lng":-52.8353},{"nome":"Bombinhas","uf":"SC","lat":-27.1382,"lng":-48.5146},{"nome":"Bonfim","uf":"RR","lat":3.36161,"lng":-59.8333},{"nome":"Bonfim","uf":"MG","lat":-20.3302,"lng":-44.2366},{"nome":"Bonfim do Piauí","uf":"PI","lat":-9.1605,"lng":-42.8865},{"nome":"Bonfinópolis","uf":"GO","lat":-16.6173,"lng":-48.9616},{"nome":"Bonfinópolis de Minas","uf":"MG","lat":-16.568,"lng":-45.9839},{"nome":"Boninal","uf":"BA","lat":-12.7069,"lng":-41.8286},{"nome":"Bonito","uf":"PE","lat":-8.47163,"lng":-35.7292},{"nome":"Bonito","uf":"BA","lat":-11.9668,"lng":-41.2647},{"nome":"Bonito","uf":"PA","lat":-1.36745,"lng":-47.3066},{"nome":"Bonito","uf":"MS","lat":-21.1261,"lng":-56.4836},{"nome":"Bonito de Minas","uf":"MG","lat":-15.3231,"lng":-44.7543},{"nome":"Bonito de Santa Fé","uf":"PB","lat":-7.31341,"lng":-38.5133},{"nome":"Bonópolis","uf":"GO","lat":-13.6329,"lng":-49.8106},{"nome":"Boqueirão","uf":"PB","lat":-7.487,"lng":-36.1309},{"nome":"Boqueirão do Leão","uf":"RS","lat":-29.3046,"lng":-52.4284},{"nome":"Boqueirão do Piauí","uf":"PI","lat":-4.48181,"lng":-42.1212},{"nome":"Boquim","uf":"SE","lat":-11.1397,"lng":-37.6195},{"nome":"Boquira","uf":"BA","lat":-12.8205,"lng":-42.7324},{"nome":"Borá","uf":"SP","lat":-22.2696,"lng":-50.5409},{"nome":"Boracéia","uf":"SP","lat":-22.1926,"lng":-48.7808},{"nome":"Borba","uf":"AM","lat":-4.39154,"lng":-59.5874},{"nome":"Borborema","uf":"PB","lat":-6.80199,"lng":-35.6187},{"nome":"Borborema","uf":"SP","lat":-21.6214,"lng":-49.0741},{"nome":"Borda da Mata","uf":"MG","lat":-22.2707,"lng":-46.1653},{"nome":"Borebi","uf":"SP","lat":-22.5728,"lng":-48.9707},{"nome":"Borrazópolis","uf":"PR","lat":-23.9366,"lng":-51.5875},{"nome":"Bossoroca","uf":"RS","lat":-28.7291,"lng":-54.9035},{"nome":"Botelhos","uf":"MG","lat":-21.6412,"lng":-46.391},{"nome":"Botucatu","uf":"SP","lat":-22.8837,"lng":-48.4437},{"nome":"Botumirim","uf":"MG","lat":-16.8657,"lng":-43.0086},{"nome":"Botuporã","uf":"BA","lat":-13.3772,"lng":-42.5163},{"nome":"Botuverá","uf":"SC","lat":-27.2007,"lng":-49.0689},{"nome":"Bozano","uf":"RS","lat":-28.3659,"lng":-53.772},{"nome":"Braço do Norte","uf":"SC","lat":-28.2681,"lng":-49.1701},{"nome":"Braço do Trombudo","uf":"SC","lat":-27.3586,"lng":-49.8821},{"nome":"Braga","uf":"RS","lat":-27.6173,"lng":-53.7405},{"nome":"Bragança","uf":"PA","lat":-1.06126,"lng":-46.7826},{"nome":"Bragança Paulista","uf":"SP","lat":-22.9527,"lng":-46.5419},{"nome":"Braganey","uf":"PR","lat":-24.8173,"lng":-53.1218},{"nome":"Branquinha","uf":"AL","lat":-9.23342,"lng":-36.0162},{"nome":"Brás Pires","uf":"MG","lat":-20.8419,"lng":-43.2406},{"nome":"Brasil Novo","uf":"PA","lat":-3.29792,"lng":-52.534},{"nome":"Brasilândia","uf":"MS","lat":-21.2544,"lng":-52.0365},{"nome":"Brasilândia de Minas","uf":"MG","lat":-16.9999,"lng":-46.0081},{"nome":"Brasilândia do Sul","uf":"PR","lat":-24.1978,"lng":-53.5275},{"nome":"Brasilândia do Tocantins","uf":"TO","lat":-8.38918,"lng":-48.4822},{"nome":"Brasiléia","uf":"AC","lat":-10.995,"lng":-68.7497},{"nome":"Brasileira","uf":"PI","lat":-4.1337,"lng":-41.7859},{"nome":"Brasília","uf":"DF","lat":-15.7795,"lng":-47.9297},{"nome":"Brasília de Minas","uf":"MG","lat":-16.2104,"lng":-44.4299},{"nome":"Brasnorte","uf":"MT","lat":-12.1474,"lng":-57.9833},{"nome":"Braúna","uf":"SP","lat":-21.499,"lng":-50.3175},{"nome":"Braúnas","uf":"MG","lat":-19.0562,"lng":-42.7099},{"nome":"Brazabrantes","uf":"GO","lat":-16.4281,"lng":-49.3863},{"nome":"Brazópolis","uf":"MG","lat":-22.4743,"lng":-45.6166},{"nome":"Brejão","uf":"PE","lat":-9.02915,"lng":-36.566},{"nome":"Brejetuba","uf":"ES","lat":-20.1395,"lng":-41.2954},{"nome":"Brejinho","uf":"RN","lat":-6.18566,"lng":-35.3591},{"nome":"Brejinho","uf":"PE","lat":-7.34694,"lng":-37.2865},{"nome":"Brejinho de Nazaré","uf":"TO","lat":-11.0058,"lng":-48.5683},{"nome":"Brejo","uf":"MA","lat":-3.67796,"lng":-42.7527},{"nome":"Brejo Alegre","uf":"SP","lat":-21.1651,"lng":-50.1861},{"nome":"Brejo da Madre de Deus","uf":"PE","lat":-8.14933,"lng":-36.3741},{"nome":"Brejo de Areia","uf":"MA","lat":-4.334,"lng":-45.581},{"nome":"Brejo do Cruz","uf":"PB","lat":-6.34185,"lng":-37.4943},{"nome":"Brejo do Piauí","uf":"PI","lat":-8.20314,"lng":-42.8229},{"nome":"Brejo dos Santos","uf":"PB","lat":-6.37065,"lng":-37.8253},{"nome":"Brejo Grande","uf":"SE","lat":-10.4297,"lng":-36.4611},{"nome":"Brejo Grande do Araguaia","uf":"PA","lat":-5.69822,"lng":-48.4103},{"nome":"Brejo Santo","uf":"CE","lat":-7.48469,"lng":-38.9799},{"nome":"Brejões","uf":"BA","lat":-13.1039,"lng":-39.7988},{"nome":"Brejolândia","uf":"BA","lat":-12.4815,"lng":-43.9679},{"nome":"Breu Branco","uf":"PA","lat":-3.77191,"lng":-49.5735},{"nome":"Breves","uf":"PA","lat":-1.68036,"lng":-50.4791},{"nome":"Britânia","uf":"GO","lat":-15.2428,"lng":-51.1602},{"nome":"Brochier","uf":"RS","lat":-29.5501,"lng":-51.5945},{"nome":"Brodowski","uf":"SP","lat":-20.9845,"lng":-47.6572},{"nome":"Brotas","uf":"SP","lat":-22.2795,"lng":-48.1251},{"nome":"Brotas de Macaúbas","uf":"BA","lat":-11.9915,"lng":-42.6326},{"nome":"Brumadinho","uf":"MG","lat":-20.151,"lng":-44.2007},{"nome":"Brumado","uf":"BA","lat":-14.2021,"lng":-41.6696},{"nome":"Brunópolis","uf":"SC","lat":-27.3058,"lng":-50.8684},{"nome":"Brusque","uf":"SC","lat":-27.0977,"lng":-48.9107},{"nome":"Bueno Brandão","uf":"MG","lat":-22.4383,"lng":-46.3491},{"nome":"Buenópolis","uf":"MG","lat":-17.8744,"lng":-44.1775},{"nome":"Buenos Aires","uf":"PE","lat":-7.72449,"lng":-35.3182},{"nome":"Buerarema","uf":"BA","lat":-14.9595,"lng":-39.3028},{"nome":"Bugre","uf":"MG","lat":-19.4231,"lng":-42.2552},{"nome":"Buíque","uf":"PE","lat":-8.61954,"lng":-37.1606},{"nome":"Bujari","uf":"AC","lat":-9.81528,"lng":-67.955},{"nome":"Bujaru","uf":"PA","lat":-1.51762,"lng":-48.0381},{"nome":"Buri","uf":"SP","lat":-23.7977,"lng":-48.5958},{"nome":"Buritama","uf":"SP","lat":-21.0661,"lng":-50.1475},{"nome":"Buriti","uf":"MA","lat":-3.94169,"lng":-42.9179},{"nome":"Buriti Alegre","uf":"GO","lat":-18.1378,"lng":-49.0404},{"nome":"Buriti Bravo","uf":"MA","lat":-5.83239,"lng":-43.8353},{"nome":"Buriti de Goiás","uf":"GO","lat":-16.1792,"lng":-50.4302},{"nome":"Buriti do Tocantins","uf":"TO","lat":-5.31448,"lng":-48.2271},{"nome":"Buriti dos Lopes","uf":"PI","lat":-3.18259,"lng":-41.8695},{"nome":"Buriti dos Montes","uf":"PI","lat":-5.30584,"lng":-41.0933},{"nome":"Buriticupu","uf":"MA","lat":-4.32375,"lng":-46.4409},{"nome":"Buritinópolis","uf":"GO","lat":-14.4772,"lng":-46.4076},{"nome":"Buritirama","uf":"BA","lat":-10.7171,"lng":-43.6302},{"nome":"Buritirana","uf":"MA","lat":-5.59823,"lng":-47.0131},{"nome":"Buritis","uf":"RO","lat":-10.1943,"lng":-63.8324},{"nome":"Buritis","uf":"MG","lat":-15.6218,"lng":-46.4221},{"nome":"Buritizal","uf":"SP","lat":-20.1911,"lng":-47.7096},{"nome":"Buritizeiro","uf":"MG","lat":-17.3656,"lng":-44.9606},{"nome":"Butiá","uf":"RS","lat":-30.1179,"lng":-51.9601},{"nome":"Caapiranga","uf":"AM","lat":-3.31537,"lng":-61.2206},{"nome":"Caaporã","uf":"PB","lat":-7.51351,"lng":-34.9055},{"nome":"Caarapó","uf":"MS","lat":-22.6368,"lng":-54.8209},{"nome":"Caatiba","uf":"BA","lat":-14.9699,"lng":-40.4092},{"nome":"Cabaceiras","uf":"PB","lat":-7.48899,"lng":-36.287},{"nome":"Cabaceiras do Paraguaçu","uf":"BA","lat":-12.5317,"lng":-39.1902},{"nome":"Cabeceira Grande","uf":"MG","lat":-16.0335,"lng":-47.0862},{"nome":"Cabeceiras","uf":"GO","lat":-15.7995,"lng":-46.9265},{"nome":"Cabeceiras do Piauí","uf":"PI","lat":-4.4773,"lng":-42.3069},{"nome":"Cabedelo","uf":"PB","lat":-6.98731,"lng":-34.8284},{"nome":"Cabixi","uf":"RO","lat":-13.4945,"lng":-60.552},{"nome":"Cabo de Santo Agostinho","uf":"PE","lat":-8.28218,"lng":-35.0253},{"nome":"Cabo Frio","uf":"RJ","lat":-22.8894,"lng":-42.0286},{"nome":"Cabo Verde","uf":"MG","lat":-21.4699,"lng":-46.3919},{"nome":"Cabrália Paulista","uf":"SP","lat":-22.4576,"lng":-49.3393},{"nome":"Cabreúva","uf":"SP","lat":-23.3053,"lng":-47.1362},{"nome":"Cabrobó","uf":"PE","lat":-8.50548,"lng":-39.3094},{"nome":"Caçador","uf":"SC","lat":-26.7757,"lng":-51.012},{"nome":"Caçapava","uf":"SP","lat":-23.0992,"lng":-45.7076},{"nome":"Caçapava do Sul","uf":"RS","lat":-30.5144,"lng":-53.4827},{"nome":"Cacaulândia","uf":"RO","lat":-10.349,"lng":-62.9043},{"nome":"Cacequi","uf":"RS","lat":-29.8883,"lng":-54.822},{"nome":"Cáceres","uf":"MT","lat":-16.0764,"lng":-57.6818},{"nome":"Cachoeira","uf":"BA","lat":-12.5994,"lng":-38.9587},{"nome":"Cachoeira Alta","uf":"GO","lat":-18.7618,"lng":-50.9432},{"nome":"Cachoeira da Prata","uf":"MG","lat":-19.521,"lng":-44.4544},{"nome":"Cachoeira de Goiás","uf":"GO","lat":-16.6635,"lng":-50.646},{"nome":"Cachoeira de Minas","uf":"MG","lat":-22.3511,"lng":-45.7809},{"nome":"Cachoeira de Pajeú","uf":"MG","lat":-15.9688,"lng":-41.4948},{"nome":"Cachoeira do Arari","uf":"PA","lat":-1.01226,"lng":-48.9503},{"nome":"Cachoeira do Piriá","uf":"PA","lat":-1.75974,"lng":-46.5459},{"nome":"Cachoeira do Sul","uf":"RS","lat":-30.033,"lng":-52.8928},{"nome":"Cachoeira dos Índios","uf":"PB","lat":-6.91353,"lng":-38.676},{"nome":"Cachoeira Dourada","uf":"GO","lat":-18.4859,"lng":-49.4766},{"nome":"Cachoeira Dourada","uf":"MG","lat":-18.5161,"lng":-49.5039},{"nome":"Cachoeira Grande","uf":"MA","lat":-2.93074,"lng":-44.0528},{"nome":"Cachoeira Paulista","uf":"SP","lat":-22.6665,"lng":-45.0154},{"nome":"Cachoeiras de Macacu","uf":"RJ","lat":-22.4658,"lng":-42.6523},{"nome":"Cachoeirinha","uf":"TO","lat":-6.1156,"lng":-47.9234},{"nome":"Cachoeirinha","uf":"PE","lat":-8.48668,"lng":-36.2402},{"nome":"Cachoeirinha","uf":"RS","lat":-29.9472,"lng":-51.1016},{"nome":"Cachoeiro de Itapemirim","uf":"ES","lat":-20.8462,"lng":-41.1198},{"nome":"Cacimba de Areia","uf":"PB","lat":-7.12128,"lng":-37.1563},{"nome":"Cacimba de Dentro","uf":"PB","lat":-6.6386,"lng":-35.7778},{"nome":"Cacimbas","uf":"PB","lat":-7.20721,"lng":-37.0604},{"nome":"Cacimbinhas","uf":"AL","lat":-9.40121,"lng":-36.9911},{"nome":"Cacique Doble","uf":"RS","lat":-27.767,"lng":-51.6597},{"nome":"Cacoal","uf":"RO","lat":-11.4343,"lng":-61.4562},{"nome":"Caconde","uf":"SP","lat":-21.528,"lng":-46.6437},{"nome":"Caçu","uf":"GO","lat":-18.5594,"lng":-51.1328},{"nome":"Caculé","uf":"BA","lat":-14.5003,"lng":-42.2229},{"nome":"Caém","uf":"BA","lat":-11.0677,"lng":-40.432},{"nome":"Caetanópolis","uf":"MG","lat":-19.2971,"lng":-44.4189},{"nome":"Caetanos","uf":"BA","lat":-14.3347,"lng":-40.9175},{"nome":"Caeté","uf":"MG","lat":-19.8826,"lng":-43.6704},{"nome":"Caetés","uf":"PE","lat":-8.7803,"lng":-36.6268},{"nome":"Caetité","uf":"BA","lat":-14.0684,"lng":-42.4861},{"nome":"Cafarnaum","uf":"BA","lat":-11.6914,"lng":-41.4688},{"nome":"Cafeara","uf":"PR","lat":-22.789,"lng":-51.7142},{"nome":"Cafelândia","uf":"SP","lat":-21.8031,"lng":-49.6092},{"nome":"Cafelândia","uf":"PR","lat":-24.6189,"lng":-53.3207},{"nome":"Cafezal do Sul","uf":"PR","lat":-23.9005,"lng":-53.5124},{"nome":"Caiabu","uf":"SP","lat":-22.0127,"lng":-51.2394},{"nome":"Caiana","uf":"MG","lat":-20.6956,"lng":-41.9292},{"nome":"Caiapônia","uf":"GO","lat":-16.9539,"lng":-51.8091},{"nome":"Caibaté","uf":"RS","lat":-28.2905,"lng":-54.6454},{"nome":"Caibi","uf":"SC","lat":-27.0741,"lng":-53.2458},{"nome":"Caiçara","uf":"RS","lat":-27.2791,"lng":-53.4257},{"nome":"Caiçara","uf":"PB","lat":-6.62115,"lng":-35.4581},{"nome":"Caiçara do Norte","uf":"RN","lat":-5.07091,"lng":-36.0717},{"nome":"Caiçara do Rio do Vento","uf":"RN","lat":-5.76541,"lng":-35.9938},{"nome":"Caicó","uf":"RN","lat":-6.45441,"lng":-37.1067},{"nome":"Caieiras","uf":"SP","lat":-23.3607,"lng":-46.7397},{"nome":"Cairu","uf":"BA","lat":-13.4904,"lng":-39.0465},{"nome":"Caiuá","uf":"SP","lat":-21.8322,"lng":-51.9969},{"nome":"Cajamar","uf":"SP","lat":-23.355,"lng":-46.8781},{"nome":"Cajapió","uf":"MA","lat":-2.87326,"lng":-44.6741},{"nome":"Cajari","uf":"MA","lat":-3.32742,"lng":-45.0145},{"nome":"Cajati","uf":"SP","lat":-24.7324,"lng":-48.1223},{"nome":"Cajazeiras","uf":"PB","lat":-6.88004,"lng":-38.5577},{"nome":"Cajazeiras do Piauí","uf":"PI","lat":-6.79667,"lng":-42.3903},{"nome":"Cajazeirinhas","uf":"PB","lat":-6.96016,"lng":-37.8009},{"nome":"Cajobi","uf":"SP","lat":-20.8773,"lng":-48.8063},{"nome":"Cajueiro","uf":"AL","lat":-9.3994,"lng":-36.1559},{"nome":"Cajueiro da Praia","uf":"PI","lat":-2.93111,"lng":-41.3408},{"nome":"Cajuri","uf":"MG","lat":-20.7903,"lng":-42.7925},{"nome":"Cajuru","uf":"SP","lat":-21.2749,"lng":-47.303},{"nome":"Calçado","uf":"PE","lat":-8.73108,"lng":-36.3366},{"nome":"Calçoene","uf":"AP","lat":2.50475,"lng":-50.9512},{"nome":"Caldas","uf":"MG","lat":-21.9183,"lng":-46.3843},{"nome":"Caldas Brandão","uf":"PB","lat":-7.1025,"lng":-35.3272},{"nome":"Caldas Novas","uf":"GO","lat":-17.7441,"lng":-48.6246},{"nome":"Caldazinha","uf":"GO","lat":-16.7117,"lng":-49.0013},{"nome":"Caldeirão Grande","uf":"BA","lat":-11.0208,"lng":-40.2956},{"nome":"Caldeirão Grande do Piauí","uf":"PI","lat":-7.3314,"lng":-40.6366},{"nome":"Califórnia","uf":"PR","lat":-23.6566,"lng":-51.3574},{"nome":"Calmon","uf":"SC","lat":-26.5942,"lng":-51.095},{"nome":"Calumbi","uf":"PE","lat":-7.93551,"lng":-38.1482},{"nome":"Camacan","uf":"BA","lat":-15.4142,"lng":-39.4919},{"nome":"Camaçari","uf":"BA","lat":-12.6996,"lng":-38.3263},{"nome":"Camacho","uf":"MG","lat":-20.6294,"lng":-45.1593},{"nome":"Camalaú","uf":"PB","lat":-7.88503,"lng":-36.8242},{"nome":"Camamu","uf":"BA","lat":-13.9398,"lng":-39.1071},{"nome":"Camanducaia","uf":"MG","lat":-22.7515,"lng":-46.1494},{"nome":"Camapuã","uf":"MS","lat":-19.5347,"lng":-54.0431},{"nome":"Camaquã","uf":"RS","lat":-30.8489,"lng":-51.8043},{"nome":"Camaragibe","uf":"PE","lat":-8.02351,"lng":-34.9782},{"nome":"Camargo","uf":"RS","lat":-28.588,"lng":-52.2003},{"nome":"Cambará","uf":"PR","lat":-23.0423,"lng":-50.0753},{"nome":"Cambará do Sul","uf":"RS","lat":-29.0474,"lng":-50.1465},{"nome":"Cambé","uf":"PR","lat":-23.2766,"lng":-51.2798},{"nome":"Cambira","uf":"PR","lat":-23.589,"lng":-51.5792},{"nome":"Camboriú","uf":"SC","lat":-27.0241,"lng":-48.6503},{"nome":"Cambuci","uf":"RJ","lat":-21.5691,"lng":-41.9187},{"nome":"Cambuí","uf":"MG","lat":-22.6115,"lng":-46.0572},{"nome":"Cambuquira","uf":"MG","lat":-21.854,"lng":-45.2896},{"nome":"Cametá","uf":"PA","lat":-2.24295,"lng":-49.4979},{"nome":"Camocim","uf":"CE","lat":-2.9005,"lng":-40.8544},{"nome":"Camocim de São Félix","uf":"PE","lat":-8.35865,"lng":-35.7653},{"nome":"Campanário","uf":"MG","lat":-18.2427,"lng":-41.7355},{"nome":"Campanha","uf":"MG","lat":-21.836,"lng":-45.4004},{"nome":"Campestre","uf":"MG","lat":-21.7079,"lng":-46.2381},{"nome":"Campestre","uf":"AL","lat":-8.84723,"lng":-35.5685},{"nome":"Campestre da Serra","uf":"RS","lat":-28.7926,"lng":-51.0941},{"nome":"Campestre de Goiás","uf":"GO","lat":-16.7624,"lng":-49.695},{"nome":"Campestre do Maranhão","uf":"MA","lat":-6.17075,"lng":-47.3625},{"nome":"Campina da Lagoa","uf":"PR","lat":-24.5893,"lng":-52.7976},{"nome":"Campina das Missões","uf":"RS","lat":-27.9888,"lng":-54.8416},{"nome":"Campina do Monte Alegre","uf":"SP","lat":-23.5895,"lng":-48.4758},{"nome":"Campina do Simão","uf":"PR","lat":-25.0802,"lng":-51.8237},{"nome":"Campina Grande","uf":"PB","lat":-7.22196,"lng":-35.8731},{"nome":"Campina Grande do Sul","uf":"PR","lat":-25.3044,"lng":-49.0551},{"nome":"Campina Verde","uf":"MG","lat":-19.5382,"lng":-49.4862},{"nome":"Campinaçu","uf":"GO","lat":-13.787,"lng":-48.5704},{"nome":"Campinápolis","uf":"MT","lat":-14.5162,"lng":-52.893},{"nome":"Campinas","uf":"SP","lat":-22.9053,"lng":-47.0659},{"nome":"Campinas do Piauí","uf":"PI","lat":-7.6593,"lng":-41.8775},{"nome":"Campinas do Sul","uf":"RS","lat":-27.7174,"lng":-52.6248},{"nome":"Campinorte","uf":"GO","lat":-14.3137,"lng":-49.1511},{"nome":"Campo Alegre","uf":"SC","lat":-26.195,"lng":-49.2676},{"nome":"Campo Alegre","uf":"AL","lat":-9.78451,"lng":-36.3525},{"nome":"Campo Alegre de Goiás","uf":"GO","lat":-17.6363,"lng":-47.7768},{"nome":"Campo Alegre de Lourdes","uf":"BA","lat":-9.52221,"lng":-43.0126},{"nome":"Campo Alegre do Fidalgo","uf":"PI","lat":-8.38236,"lng":-41.8344},{"nome":"Campo Azul","uf":"MG","lat":-16.5028,"lng":-44.8096},{"nome":"Campo Belo","uf":"MG","lat":-20.8932,"lng":-45.2699},{"nome":"Campo Belo do Sul","uf":"SC","lat":-27.8975,"lng":-50.7595},{"nome":"Campo Bom","uf":"RS","lat":-29.6747,"lng":-51.0606},{"nome":"Campo Bonito","uf":"PR","lat":-25.0294,"lng":-52.9939},{"nome":"Campo do Brito","uf":"SE","lat":-10.7392,"lng":-37.4954},{"nome":"Campo do Meio","uf":"MG","lat":-21.1127,"lng":-45.8273},{"nome":"Campo do Tenente","uf":"PR","lat":-25.98,"lng":-49.6844},{"nome":"Campo Erê","uf":"SC","lat":-26.3931,"lng":-53.0856},{"nome":"Campo Florido","uf":"MG","lat":-19.7631,"lng":-48.5716},{"nome":"Campo Formoso","uf":"BA","lat":-10.5105,"lng":-40.32},{"nome":"Campo Grande","uf":"AL","lat":-9.95542,"lng":-36.7926},{"nome":"Campo Grande","uf":"MS","lat":-20.4486,"lng":-54.6295},{"nome":"Campo Grande do Piauí","uf":"PI","lat":-7.12827,"lng":-41.0315},{"nome":"Campo Largo","uf":"PR","lat":-25.4525,"lng":-49.529},{"nome":"Campo Largo do Piauí","uf":"PI","lat":-3.80441,"lng":-42.64},{"nome":"Campo Limpo de Goiás","uf":"GO","lat":-16.2971,"lng":-49.0895},{"nome":"Campo Limpo Paulista","uf":"SP","lat":-23.2078,"lng":-46.7889},{"nome":"Campo Magro","uf":"PR","lat":-25.3687,"lng":-49.4501},{"nome":"Campo Maior","uf":"PI","lat":-4.8217,"lng":-42.1641},{"nome":"Campo Mourão","uf":"PR","lat":-24.0463,"lng":-52.378},{"nome":"Campo Novo","uf":"RS","lat":-27.6792,"lng":-53.8052},{"nome":"Campo Novo de Rondônia","uf":"RO","lat":-10.5712,"lng":-63.6266},{"nome":"Campo Novo do Parecis","uf":"MT","lat":-13.6587,"lng":-57.8907},{"nome":"Campo Redondo","uf":"RN","lat":-6.23829,"lng":-36.1888},{"nome":"Campo Verde","uf":"MT","lat":-15.545,"lng":-55.1626},{"nome":"Campos Altos","uf":"MG","lat":-19.6914,"lng":-46.1725},{"nome":"Campos Belos","uf":"GO","lat":-13.035,"lng":-46.7681},{"nome":"Campos Borges","uf":"RS","lat":-28.8871,"lng":-53.0008},{"nome":"Campos de Júlio","uf":"MT","lat":-13.7242,"lng":-59.2858},{"nome":"Campos do Jordão","uf":"SP","lat":-22.7296,"lng":-45.5833},{"nome":"Campos dos Goytacazes","uf":"RJ","lat":-21.7622,"lng":-41.3181},{"nome":"Campos Gerais","uf":"MG","lat":-21.237,"lng":-45.7569},{"nome":"Campos Lindos","uf":"TO","lat":-7.98956,"lng":-46.8645},{"nome":"Campos Novos","uf":"SC","lat":-27.4002,"lng":-51.2276},{"nome":"Campos Novos Paulista","uf":"SP","lat":-22.602,"lng":-49.9987},{"nome":"Campos Sales","uf":"CE","lat":-7.06761,"lng":-40.3687},{"nome":"Campos Verdes","uf":"GO","lat":-14.2442,"lng":-49.6528},{"nome":"Camutanga","uf":"PE","lat":-7.40545,"lng":-35.2664},{"nome":"Cana Verde","uf":"MG","lat":-21.0232,"lng":-45.1801},{"nome":"Canaã","uf":"MG","lat":-20.6869,"lng":-42.6167},{"nome":"Canaã dos Carajás","uf":"PA","lat":-6.49659,"lng":-49.8776},{"nome":"Canabrava do Norte","uf":"MT","lat":-11.0556,"lng":-51.8209},{"nome":"Cananéia","uf":"SP","lat":-25.0144,"lng":-47.9341},{"nome":"Canapi","uf":"AL","lat":-9.11932,"lng":-37.5967},{"nome":"Canápolis","uf":"BA","lat":-13.0725,"lng":-44.201},{"nome":"Canápolis","uf":"MG","lat":-18.7212,"lng":-49.2035},{"nome":"Canarana","uf":"BA","lat":-11.6858,"lng":-41.7677},{"nome":"Canarana","uf":"MT","lat":-13.5515,"lng":-52.2705},{"nome":"Canas","uf":"SP","lat":-22.7003,"lng":-45.0521},{"nome":"Canavieira","uf":"PI","lat":-7.68821,"lng":-43.7233},{"nome":"Canavieiras","uf":"BA","lat":-15.6722,"lng":-38.9536},{"nome":"Candeal","uf":"BA","lat":-11.8049,"lng":-39.1203},{"nome":"Candeias","uf":"BA","lat":-12.6716,"lng":-38.5472},{"nome":"Candeias","uf":"MG","lat":-20.7692,"lng":-45.2765},{"nome":"Candeias do Jamari","uf":"RO","lat":-8.7907,"lng":-63.7005},{"nome":"Candelária","uf":"RS","lat":-29.6684,"lng":-52.7895},{"nome":"Candiba","uf":"BA","lat":-14.4097,"lng":-42.8667},{"nome":"Cândido de Abreu","uf":"PR","lat":-24.5649,"lng":-51.3372},{"nome":"Cândido Godói","uf":"RS","lat":-27.9515,"lng":-54.7517},{"nome":"Cândido Mendes","uf":"MA","lat":-1.43265,"lng":-45.7161},{"nome":"Cândido Mota","uf":"SP","lat":-22.7471,"lng":-50.3873},{"nome":"Cândido Rodrigues","uf":"SP","lat":-21.3275,"lng":-48.6327},{"nome":"Cândido Sales","uf":"BA","lat":-15.4993,"lng":-41.2414},{"nome":"Candiota","uf":"RS","lat":-31.5516,"lng":-53.6773},{"nome":"Candói","uf":"PR","lat":-25.5758,"lng":-52.0409},{"nome":"Canela","uf":"RS","lat":-29.356,"lng":-50.8119},{"nome":"Canelinha","uf":"SC","lat":-27.2616,"lng":-48.7658},{"nome":"Canguaretama","uf":"RN","lat":-6.37193,"lng":-35.1281},{"nome":"Canguçu","uf":"RS","lat":-31.396,"lng":-52.6783},{"nome":"Canhoba","uf":"SE","lat":-10.1365,"lng":-36.9806},{"nome":"Canhotinho","uf":"PE","lat":-8.87652,"lng":-36.1979},{"nome":"Canindé","uf":"CE","lat":-4.35162,"lng":-39.3155},{"nome":"Canindé de São Francisco","uf":"SE","lat":-9.64882,"lng":-37.7923},{"nome":"Canitar","uf":"SP","lat":-23.004,"lng":-49.7839},{"nome":"Canoas","uf":"RS","lat":-29.9128,"lng":-51.1857},{"nome":"Canoinhas","uf":"SC","lat":-26.1766,"lng":-50.395},{"nome":"Cansanção","uf":"BA","lat":-10.6647,"lng":-39.4944},{"nome":"Cantá","uf":"RR","lat":2.60994,"lng":-60.6058},{"nome":"Cantagalo","uf":"RJ","lat":-21.9797,"lng":-42.3664},{"nome":"Cantagalo","uf":"PR","lat":-25.3734,"lng":-52.1198},{"nome":"Cantagalo","uf":"MG","lat":-18.5248,"lng":-42.6223},{"nome":"Cantanhede","uf":"MA","lat":-3.63757,"lng":-44.383},{"nome":"Canto do Buriti","uf":"PI","lat":-8.1111,"lng":-42.9517},{"nome":"Canudos","uf":"BA","lat":-9.90014,"lng":-39.1471},{"nome":"Canudos do Vale","uf":"RS","lat":-29.3271,"lng":-52.2374},{"nome":"Canutama","uf":"AM","lat":-6.52582,"lng":-64.3953},{"nome":"Capanema","uf":"PA","lat":-1.20529,"lng":-47.1778},{"nome":"Capanema","uf":"PR","lat":-25.6691,"lng":-53.8055},{"nome":"Capão Alto","uf":"SC","lat":-27.9389,"lng":-50.5098},{"nome":"Capão Bonito","uf":"SP","lat":-24.0113,"lng":-48.3482},{"nome":"Capão Bonito do Sul","uf":"RS","lat":-28.1254,"lng":-51.3961},{"nome":"Capão da Canoa","uf":"RS","lat":-29.7642,"lng":-50.0282},{"nome":"Capão do Cipó","uf":"RS","lat":-28.9312,"lng":-54.5558},{"nome":"Capão do Leão","uf":"RS","lat":-31.7565,"lng":-52.4889},{"nome":"Caparaó","uf":"MG","lat":-20.5289,"lng":-41.9061},{"nome":"Capela","uf":"AL","lat":-9.41504,"lng":-36.0826},{"nome":"Capela","uf":"SE","lat":-10.5069,"lng":-37.0628},{"nome":"Capela de Santana","uf":"RS","lat":-29.6961,"lng":-51.328},{"nome":"Capela do Alto","uf":"SP","lat":-23.4685,"lng":-47.7388},{"nome":"Capela do Alto Alegre","uf":"BA","lat":-11.6658,"lng":-39.8349},{"nome":"Capela Nova","uf":"MG","lat":-20.9179,"lng":-43.622},{"nome":"Capelinha","uf":"MG","lat":-17.6888,"lng":-42.5147},{"nome":"Capetinga","uf":"MG","lat":-20.6163,"lng":-47.0571},{"nome":"Capim","uf":"PB","lat":-6.91624,"lng":-35.1673},{"nome":"Capim Branco","uf":"MG","lat":-19.5471,"lng":-44.1304},{"nome":"Capim Grosso","uf":"BA","lat":-11.3797,"lng":-40.0089},{"nome":"Capinópolis","uf":"MG","lat":-18.6862,"lng":-49.5706},{"nome":"Capinzal","uf":"SC","lat":-27.3473,"lng":-51.6057},{"nome":"Capinzal do Norte","uf":"MA","lat":-4.7236,"lng":-44.328},{"nome":"Capistrano","uf":"CE","lat":-4.45569,"lng":-38.9048},{"nome":"Capitão","uf":"RS","lat":-29.2674,"lng":-51.9853},{"nome":"Capitão Andrade","uf":"MG","lat":-19.0748,"lng":-41.8614},{"nome":"Capitão de Campos","uf":"PI","lat":-4.457,"lng":-41.944},{"nome":"Capitão Enéas","uf":"MG","lat":-16.3265,"lng":-43.7084},{"nome":"Capitão Gervásio Oliveira","uf":"PI","lat":-8.49655,"lng":-41.814},{"nome":"Capitão Leônidas Marques","uf":"PR","lat":-25.4816,"lng":-53.6112},{"nome":"Capitão Poço","uf":"PA","lat":-1.74785,"lng":-47.0629},{"nome":"Capitólio","uf":"MG","lat":-20.6164,"lng":-46.0493},{"nome":"Capivari","uf":"SP","lat":-22.9951,"lng":-47.5071},{"nome":"Capivari de Baixo","uf":"SC","lat":-28.4498,"lng":-48.9631},{"nome":"Capivari do Sul","uf":"RS","lat":-30.1383,"lng":-50.5152},{"nome":"Capixaba","uf":"AC","lat":-10.566,"lng":-67.686},{"nome":"Capoeiras","uf":"PE","lat":-8.73423,"lng":-36.6306},{"nome":"Caputira","uf":"MG","lat":-20.1703,"lng":-42.2683},{"nome":"Caraá","uf":"RS","lat":-29.7869,"lng":-50.4316},{"nome":"Caracaraí","uf":"RR","lat":1.82766,"lng":-61.1304},{"nome":"Caracol","uf":"PI","lat":-9.27933,"lng":-43.329},{"nome":"Caracol","uf":"MS","lat":-22.011,"lng":-57.0277},{"nome":"Caraguatatuba","uf":"SP","lat":-23.6125,"lng":-45.4125},{"nome":"Caraí","uf":"MG","lat":-17.1862,"lng":-41.7004},{"nome":"Caraíbas","uf":"BA","lat":-14.7177,"lng":-41.2603},{"nome":"Carambeí","uf":"PR","lat":-24.9152,"lng":-50.0986},{"nome":"Caranaíba","uf":"MG","lat":-20.8707,"lng":-43.7417},{"nome":"Carandaí","uf":"MG","lat":-20.9566,"lng":-43.811},{"nome":"Carangola","uf":"MG","lat":-20.7343,"lng":-42.0313},{"nome":"Carapebus","uf":"RJ","lat":-22.1821,"lng":-41.663},{"nome":"Carapicuíba","uf":"SP","lat":-23.5235,"lng":-46.8407},{"nome":"Caratinga","uf":"MG","lat":-19.7868,"lng":-42.1292},{"nome":"Carauari","uf":"AM","lat":-4.88161,"lng":-66.9086},{"nome":"Caraúbas","uf":"RN","lat":-5.78387,"lng":-37.5586},{"nome":"Caraúbas","uf":"PB","lat":-7.72049,"lng":-36.492},{"nome":"Caraúbas do Piauí","uf":"PI","lat":-3.47525,"lng":-41.8425},{"nome":"Caravelas","uf":"BA","lat":-17.7268,"lng":-39.2597},{"nome":"Carazinho","uf":"RS","lat":-28.2958,"lng":-52.7933},{"nome":"Carbonita","uf":"MG","lat":-17.5255,"lng":-43.0137},{"nome":"Cardeal da Silva","uf":"BA","lat":-11.9472,"lng":-37.9469},{"nome":"Cardoso","uf":"SP","lat":-20.08,"lng":-49.9183},{"nome":"Cardoso Moreira","uf":"RJ","lat":-21.4846,"lng":-41.6165},{"nome":"Careaçu","uf":"MG","lat":-22.0424,"lng":-45.696},{"nome":"Careiro","uf":"AM","lat":-3.76803,"lng":-60.369},{"nome":"Careiro da Várzea","uf":"AM","lat":-3.314,"lng":-59.5557},{"nome":"Cariacica","uf":"ES","lat":-20.2632,"lng":-40.4165},{"nome":"Caridade","uf":"CE","lat":-4.22514,"lng":-39.1912},{"nome":"Caridade do Piauí","uf":"PI","lat":-7.73435,"lng":-40.9848},{"nome":"Carinhanha","uf":"BA","lat":-14.2985,"lng":-43.7724},{"nome":"Carira","uf":"SE","lat":-10.3524,"lng":-37.7002},{"nome":"Cariré","uf":"CE","lat":-3.94858,"lng":-40.476},{"nome":"Cariri do Tocantins","uf":"TO","lat":-11.8881,"lng":-49.1609},{"nome":"Caririaçu","uf":"CE","lat":-7.02808,"lng":-39.2828},{"nome":"Cariús","uf":"CE","lat":-6.52428,"lng":-39.4916},{"nome":"Carlinda","uf":"MT","lat":-9.94912,"lng":-55.8417},{"nome":"Carlópolis","uf":"PR","lat":-23.4269,"lng":-49.7235},{"nome":"Carlos Barbosa","uf":"RS","lat":-29.2969,"lng":-51.5028},{"nome":"Carlos Chagas","uf":"MG","lat":-17.6973,"lng":-40.7723},{"nome":"Carlos Gomes","uf":"RS","lat":-27.7167,"lng":-51.9121},{"nome":"Carmésia","uf":"MG","lat":-19.0877,"lng":-43.1382},{"nome":"Carmo","uf":"RJ","lat":-21.931,"lng":-42.6046},{"nome":"Carmo da Cachoeira","uf":"MG","lat":-21.4633,"lng":-45.2201},{"nome":"Carmo da Mata","uf":"MG","lat":-20.5575,"lng":-44.8735},{"nome":"Carmo de Minas","uf":"MG","lat":-22.1204,"lng":-45.1307},{"nome":"Carmo do Cajuru","uf":"MG","lat":-20.1912,"lng":-44.7664},{"nome":"Carmo do Paranaíba","uf":"MG","lat":-18.991,"lng":-46.3167},{"nome":"Carmo do Rio Claro","uf":"MG","lat":-20.9736,"lng":-46.1149},{"nome":"Carmo do Rio Verde","uf":"GO","lat":-15.3549,"lng":-49.708},{"nome":"Carmolândia","uf":"TO","lat":-7.03262,"lng":-48.3978},{"nome":"Carmópolis","uf":"SE","lat":-10.6449,"lng":-36.9887},{"nome":"Carmópolis de Minas","uf":"MG","lat":-20.5396,"lng":-44.6336},{"nome":"Carnaíba","uf":"PE","lat":-7.79342,"lng":-37.7946},{"nome":"Carnaúba dos Dantas","uf":"RN","lat":-6.55015,"lng":-36.5868},{"nome":"Carnaubais","uf":"RN","lat":-5.34181,"lng":-36.8335},{"nome":"Carnaubal","uf":"CE","lat":-4.15985,"lng":-40.9413},{"nome":"Carnaubeira da Penha","uf":"PE","lat":-8.31799,"lng":-38.7512},{"nome":"Carneirinho","uf":"MG","lat":-19.6987,"lng":-50.6894},{"nome":"Carneiros","uf":"AL","lat":-9.48476,"lng":-37.3773},{"nome":"Caroebe","uf":"RR","lat":0.884203,"lng":-59.6959},{"nome":"Carolina","uf":"MA","lat":-7.33584,"lng":-47.4634},{"nome":"Carpina","uf":"PE","lat":-7.84566,"lng":-35.2514},{"nome":"Carrancas","uf":"MG","lat":-21.4898,"lng":-44.6446},{"nome":"Carrapateira","uf":"PB","lat":-7.03414,"lng":-38.3399},{"nome":"Carrasco Bonito","uf":"TO","lat":-5.31415,"lng":-48.0314},{"nome":"Caruaru","uf":"PE","lat":-8.28455,"lng":-35.9699},{"nome":"Carutapera","uf":"MA","lat":-1.19696,"lng":-46.0085},{"nome":"Carvalhópolis","uf":"MG","lat":-21.7735,"lng":-45.8421},{"nome":"Carvalhos","uf":"MG","lat":-22,"lng":-44.4632},{"nome":"Casa Branca","uf":"SP","lat":-21.7708,"lng":-47.0852},{"nome":"Casa Grande","uf":"MG","lat":-20.7925,"lng":-43.9343},{"nome":"Casa Nova","uf":"BA","lat":-9.16408,"lng":-40.974},{"nome":"Casca","uf":"RS","lat":-28.5605,"lng":-51.9815},{"nome":"Cascalho Rico","uf":"MG","lat":-18.5772,"lng":-47.8716},{"nome":"Cascavel","uf":"PR","lat":-24.9573,"lng":-53.459},{"nome":"Cascavel","uf":"CE","lat":-4.12967,"lng":-38.2412},{"nome":"Caseara","uf":"TO","lat":-9.27612,"lng":-49.9521},{"nome":"Caseiros","uf":"RS","lat":-28.2582,"lng":-51.6861},{"nome":"Casimiro de Abreu","uf":"RJ","lat":-22.4812,"lng":-42.2066},{"nome":"Casinhas","uf":"PE","lat":-7.74084,"lng":-35.7206},{"nome":"Casserengue","uf":"PB","lat":-6.77954,"lng":-35.8179},{"nome":"Cássia","uf":"MG","lat":-20.5831,"lng":-46.9201},{"nome":"Cássia dos Coqueiros","uf":"SP","lat":-21.2801,"lng":-47.1643},{"nome":"Cassilândia","uf":"MS","lat":-19.1179,"lng":-51.7313},{"nome":"Castanhal","uf":"PA","lat":-1.29797,"lng":-47.9167},{"nome":"Castanheira","uf":"MT","lat":-11.1251,"lng":-58.6081},{"nome":"Castanheiras","uf":"RO","lat":-11.4253,"lng":-61.9482},{"nome":"Castelândia","uf":"GO","lat":-18.0921,"lng":-50.203},{"nome":"Castelo","uf":"ES","lat":-20.6033,"lng":-41.2031},{"nome":"Castelo do Piauí","uf":"PI","lat":-5.31869,"lng":-41.5499},{"nome":"Castilho","uf":"SP","lat":-20.8689,"lng":-51.4884},{"nome":"Castro","uf":"PR","lat":-24.7891,"lng":-50.0108},{"nome":"Castro Alves","uf":"BA","lat":-12.7579,"lng":-39.4248},{"nome":"Cataguases","uf":"MG","lat":-21.3924,"lng":-42.6896},{"nome":"Catalão","uf":"GO","lat":-18.1656,"lng":-47.944},{"nome":"Catanduva","uf":"SP","lat":-21.1314,"lng":-48.977},{"nome":"Catanduvas","uf":"PR","lat":-25.2044,"lng":-53.1548},{"nome":"Catanduvas","uf":"SC","lat":-27.069,"lng":-51.6602},{"nome":"Catarina","uf":"CE","lat":-6.12291,"lng":-39.8736},{"nome":"Catas Altas","uf":"MG","lat":-20.0734,"lng":-43.4061},{"nome":"Catas Altas da Noruega","uf":"MG","lat":-20.6901,"lng":-43.4939},{"nome":"Catende","uf":"PE","lat":-8.67509,"lng":-35.7024},{"nome":"Catiguá","uf":"SP","lat":-21.0519,"lng":-49.0616},{"nome":"Catingueira","uf":"PB","lat":-7.12008,"lng":-37.6064},{"nome":"Catolândia","uf":"BA","lat":-12.31,"lng":-44.8648},{"nome":"Catolé do Rocha","uf":"PB","lat":-6.34062,"lng":-37.747},{"nome":"Catu","uf":"BA","lat":-12.3513,"lng":-38.3791},{"nome":"Catuípe","uf":"RS","lat":-28.2554,"lng":-54.0132},{"nome":"Catuji","uf":"MG","lat":-17.3018,"lng":-41.5276},{"nome":"Catunda","uf":"CE","lat":-4.64336,"lng":-40.2},{"nome":"Caturaí","uf":"GO","lat":-16.4447,"lng":-49.4936},{"nome":"Caturama","uf":"BA","lat":-13.3239,"lng":-42.2904},{"nome":"Caturité","uf":"PB","lat":-7.41659,"lng":-36.0306},{"nome":"Catuti","uf":"MG","lat":-15.3616,"lng":-42.9627},{"nome":"Caucaia","uf":"CE","lat":-3.72797,"lng":-38.6619},{"nome":"Cavalcante","uf":"GO","lat":-13.7976,"lng":-47.4566},{"nome":"Caxambu","uf":"MG","lat":-21.9753,"lng":-44.9319},{"nome":"Caxambu do Sul","uf":"SC","lat":-27.1624,"lng":-52.8807},{"nome":"Caxias","uf":"MA","lat":-4.86505,"lng":-43.3617},{"nome":"Caxias do Sul","uf":"RS","lat":-29.1629,"lng":-51.1792},{"nome":"Caxingó","uf":"PI","lat":-3.41904,"lng":-41.8955},{"nome":"Ceará-Mirim","uf":"RN","lat":-5.64323,"lng":-35.4247},{"nome":"Cedral","uf":"MA","lat":-2.00027,"lng":-44.5281},{"nome":"Cedral","uf":"SP","lat":-20.9009,"lng":-49.2664},{"nome":"Cedro","uf":"CE","lat":-6.60034,"lng":-39.0609},{"nome":"Cedro","uf":"PE","lat":-7.71179,"lng":-39.2367},{"nome":"Cedro de São João","uf":"SE","lat":-10.2534,"lng":-36.8856},{"nome":"Cedro do Abaeté","uf":"MG","lat":-19.1458,"lng":-45.712},{"nome":"Celso Ramos","uf":"SC","lat":-27.6327,"lng":-51.335},{"nome":"Centenário","uf":"RS","lat":-27.7615,"lng":-51.9984},{"nome":"Centenário","uf":"TO","lat":-8.96103,"lng":-47.3304},{"nome":"Centenário do Sul","uf":"PR","lat":-22.8188,"lng":-51.5973},{"nome":"Central","uf":"BA","lat":-11.1376,"lng":-42.1116},{"nome":"Central de Minas","uf":"MG","lat":-18.7612,"lng":-41.3143},{"nome":"Central do Maranhão","uf":"MA","lat":-2.19831,"lng":-44.8254},{"nome":"Centralina","uf":"MG","lat":-18.5852,"lng":-49.2014},{"nome":"Centro do Guilherme","uf":"MA","lat":-2.44891,"lng":-46.0345},{"nome":"Centro Novo do Maranhão","uf":"MA","lat":-2.12696,"lng":-46.1228},{"nome":"Cerejeiras","uf":"RO","lat":-13.187,"lng":-60.8168},{"nome":"Ceres","uf":"GO","lat":-15.3061,"lng":-49.6},{"nome":"Cerqueira César","uf":"SP","lat":-23.038,"lng":-49.1655},{"nome":"Cerquilho","uf":"SP","lat":-23.1665,"lng":-47.7459},{"nome":"Cerrito","uf":"RS","lat":-31.8419,"lng":-52.8004},{"nome":"Cerro Azul","uf":"PR","lat":-26.0891,"lng":-52.8691},{"nome":"Cerro Branco","uf":"RS","lat":-29.657,"lng":-52.9406},{"nome":"Cerro Corá","uf":"RN","lat":-6.03503,"lng":-36.3503},{"nome":"Cerro Grande","uf":"RS","lat":-27.6106,"lng":-53.1672},{"nome":"Cerro Grande do Sul","uf":"RS","lat":-30.5905,"lng":-51.7418},{"nome":"Cerro Largo","uf":"RS","lat":-28.1463,"lng":-54.7428},{"nome":"Cerro Negro","uf":"SC","lat":-27.7942,"lng":-50.8673},{"nome":"Cesário Lange","uf":"SP","lat":-23.226,"lng":-47.9545},{"nome":"Céu Azul","uf":"PR","lat":-25.1489,"lng":-53.8415},{"nome":"Cezarina","uf":"GO","lat":-16.9718,"lng":-49.7758},{"nome":"Chã de Alegria","uf":"PE","lat":-8.00679,"lng":-35.204},{"nome":"Chã Grande","uf":"PE","lat":-8.23827,"lng":-35.4571},{"nome":"Chã Preta","uf":"AL","lat":-9.2556,"lng":-36.2983},{"nome":"Chácara","uf":"MG","lat":-21.6733,"lng":-43.215},{"nome":"Chalé","uf":"MG","lat":-20.0453,"lng":-41.6897},{"nome":"Chapada","uf":"RS","lat":-28.0559,"lng":-53.0665},{"nome":"Chapada da Natividade","uf":"TO","lat":-11.6175,"lng":-47.7486},{"nome":"Chapada de Areia","uf":"TO","lat":-10.1419,"lng":-49.1403},{"nome":"Chapada do Norte","uf":"MG","lat":-17.0881,"lng":-42.5392},{"nome":"Chapada dos Guimarães","uf":"MT","lat":-15.4643,"lng":-55.7499},{"nome":"Chapada Gaúcha","uf":"MG","lat":-15.3014,"lng":-45.6116},{"nome":"Chapadão do Céu","uf":"GO","lat":-18.4073,"lng":-52.549},{"nome":"Chapadão do Lageado","uf":"SC","lat":-27.5905,"lng":-49.5539},{"nome":"Chapadão do Sul","uf":"MS","lat":-18.788,"lng":-52.6263},{"nome":"Chapadinha","uf":"MA","lat":-3.73875,"lng":-43.3538},{"nome":"Chapecó","uf":"SC","lat":-27.1004,"lng":-52.6152},{"nome":"Charqueada","uf":"SP","lat":-22.5096,"lng":-47.7755},{"nome":"Charqueadas","uf":"RS","lat":-29.9625,"lng":-51.6289},{"nome":"Charrua","uf":"RS","lat":-27.9493,"lng":-52.015},{"nome":"Chaval","uf":"CE","lat":-3.03571,"lng":-41.2435},{"nome":"Chavantes","uf":"SP","lat":-23.0366,"lng":-49.7096},{"nome":"Chaves","uf":"PA","lat":-0.164154,"lng":-49.987},{"nome":"Chiador","uf":"MG","lat":-21.9996,"lng":-43.0617},{"nome":"Chiapetta","uf":"RS","lat":-27.923,"lng":-53.9419},{"nome":"Chopinzinho","uf":"PR","lat":-25.8515,"lng":-52.5173},{"nome":"Choró","uf":"CE","lat":-4.83906,"lng":-39.1344},{"nome":"Chorozinho","uf":"CE","lat":-4.28873,"lng":-38.4986},{"nome":"Chorrochó","uf":"BA","lat":-8.9695,"lng":-39.0979},{"nome":"Chuí","uf":"RS","lat":-33.6866,"lng":-53.4594},{"nome":"Chupinguaia","uf":"RO","lat":-12.5611,"lng":-60.8877},{"nome":"Chuvisca","uf":"RS","lat":-30.7504,"lng":-51.9737},{"nome":"Cianorte","uf":"PR","lat":-23.6599,"lng":-52.6054},{"nome":"Cícero Dantas","uf":"BA","lat":-10.5897,"lng":-38.3794},{"nome":"Cidade Gaúcha","uf":"PR","lat":-23.3772,"lng":-52.9436},{"nome":"Cidade Ocidental","uf":"GO","lat":-16.0765,"lng":-47.9252},{"nome":"Cidelândia","uf":"MA","lat":-5.17465,"lng":-47.7781},{"nome":"Cidreira","uf":"RS","lat":-30.1604,"lng":-50.2337},{"nome":"Cipó","uf":"BA","lat":-11.1032,"lng":-38.5179},{"nome":"Cipotânea","uf":"MG","lat":-20.9026,"lng":-43.3629},{"nome":"Ciríaco","uf":"RS","lat":-28.3419,"lng":-51.8741},{"nome":"Claraval","uf":"MG","lat":-20.397,"lng":-47.2768},{"nome":"Claro dos Poções","uf":"MG","lat":-17.082,"lng":-44.2061},{"nome":"Cláudia","uf":"MT","lat":-11.5075,"lng":-54.8835},{"nome":"Cláudio","uf":"MG","lat":-20.4437,"lng":-44.7673},{"nome":"Clementina","uf":"SP","lat":-21.5604,"lng":-50.4525},{"nome":"Clevelândia","uf":"PR","lat":-26.4043,"lng":-52.3508},{"nome":"Coaraci","uf":"BA","lat":-14.637,"lng":-39.5556},{"nome":"Coari","uf":"AM","lat":-4.09412,"lng":-63.1441},{"nome":"Cocal","uf":"PI","lat":-3.47279,"lng":-41.5546},{"nome":"Cocal de Telha","uf":"PI","lat":-4.5571,"lng":-41.9587},{"nome":"Cocal do Sul","uf":"SC","lat":-28.5986,"lng":-49.3335},{"nome":"Cocal dos Alves","uf":"PI","lat":-3.62047,"lng":-41.4402},{"nome":"Cocalinho","uf":"MT","lat":-14.3903,"lng":-51.0001},{"nome":"Cocalzinho de Goiás","uf":"GO","lat":-15.7914,"lng":-48.7747},{"nome":"Cocos","uf":"BA","lat":-14.1814,"lng":-44.5352},{"nome":"Codajás","uf":"AM","lat":-3.83053,"lng":-62.0658},{"nome":"Codó","uf":"MA","lat":-4.45562,"lng":-43.8924},{"nome":"Coelho Neto","uf":"MA","lat":-4.25245,"lng":-43.0108},{"nome":"Coimbra","uf":"MG","lat":-20.8535,"lng":-42.8008},{"nome":"Coité do Nóia","uf":"AL","lat":-9.63348,"lng":-36.5845},{"nome":"Coivaras","uf":"PI","lat":-5.09224,"lng":-42.208},{"nome":"Colares","uf":"PA","lat":-0.936423,"lng":-48.2803},{"nome":"Colatina","uf":"ES","lat":-19.5493,"lng":-40.6269},{"nome":"Colíder","uf":"MT","lat":-10.8135,"lng":-55.461},{"nome":"Colina","uf":"SP","lat":-20.7114,"lng":-48.5387},{"nome":"Colinas","uf":"RS","lat":-29.3948,"lng":-51.8556},{"nome":"Colinas","uf":"MA","lat":-6.03199,"lng":-44.2543},{"nome":"Colinas do Sul","uf":"GO","lat":-14.1528,"lng":-48.076},{"nome":"Colinas do Tocantins","uf":"TO","lat":-8.05764,"lng":-48.4757},{"nome":"Colméia","uf":"TO","lat":-8.72463,"lng":-48.7638},{"nome":"Colniza","uf":"MT","lat":-9.46121,"lng":-59.2252},{"nome":"Colômbia","uf":"SP","lat":-20.1768,"lng":-48.6865},{"nome":"Colombo","uf":"PR","lat":-25.2925,"lng":-49.2262},{"nome":"Colônia do Gurguéia","uf":"PI","lat":-8.1837,"lng":-43.794},{"nome":"Colônia do Piauí","uf":"PI","lat":-7.22651,"lng":-42.1756},{"nome":"Colônia Leopoldina","uf":"AL","lat":-8.91806,"lng":-35.7214},{"nome":"Colorado","uf":"RS","lat":-28.5258,"lng":-52.9928},{"nome":"Colorado","uf":"PR","lat":-22.8374,"lng":-51.9743},{"nome":"Colorado do Oeste","uf":"RO","lat":-13.1174,"lng":-60.5454},{"nome":"Coluna","uf":"MG","lat":-18.2311,"lng":-42.8352},{"nome":"Combinado","uf":"TO","lat":-12.7917,"lng":-46.5388},{"nome":"Comendador Gomes","uf":"MG","lat":-19.6973,"lng":-49.0789},{"nome":"Comendador Levy Gasparian","uf":"RJ","lat":-22.0404,"lng":-43.214},{"nome":"Comercinho","uf":"MG","lat":-16.2963,"lng":-41.7945},{"nome":"Comodoro","uf":"MT","lat":-13.6614,"lng":-59.7848},{"nome":"Conceição","uf":"PB","lat":-7.55106,"lng":-38.5014},{"nome":"Conceição da Aparecida","uf":"MG","lat":-21.096,"lng":-46.2049},{"nome":"Conceição da Barra","uf":"ES","lat":-18.5883,"lng":-39.7362},{"nome":"Conceição da Barra de Minas","uf":"MG","lat":-21.1316,"lng":-44.4729},{"nome":"Conceição da Feira","uf":"BA","lat":-12.5078,"lng":-38.9978},{"nome":"Conceição das Alagoas","uf":"MG","lat":-19.9172,"lng":-48.3839},{"nome":"Conceição das Pedras","uf":"MG","lat":-22.1576,"lng":-45.4562},{"nome":"Conceição de Ipanema","uf":"MG","lat":-19.9326,"lng":-41.6908},{"nome":"Conceição de Macabu","uf":"RJ","lat":-22.0834,"lng":-41.8719},{"nome":"Conceição do Almeida","uf":"BA","lat":-12.7836,"lng":-39.1715},{"nome":"Conceição do Araguaia","uf":"PA","lat":-8.26136,"lng":-49.2689},{"nome":"Conceição do Canindé","uf":"PI","lat":-7.87638,"lng":-41.5942},{"nome":"Conceição do Castelo","uf":"ES","lat":-20.3639,"lng":-41.2417},{"nome":"Conceição do Coité","uf":"BA","lat":-11.56,"lng":-39.2808},{"nome":"Conceição do Jacuípe","uf":"BA","lat":-12.3268,"lng":-38.7684},{"nome":"Conceição do Lago-Açu","uf":"MA","lat":-3.85142,"lng":-44.8895},{"nome":"Conceição do Mato Dentro","uf":"MG","lat":-19.0344,"lng":-43.4221},{"nome":"Conceição do Pará","uf":"MG","lat":-19.7456,"lng":-44.8945},{"nome":"Conceição do Rio Verde","uf":"MG","lat":-21.8778,"lng":-45.087},{"nome":"Conceição do Tocantins","uf":"TO","lat":-12.2209,"lng":-47.2951},{"nome":"Conceição dos Ouros","uf":"MG","lat":-22.4078,"lng":-45.7996},{"nome":"Conchal","uf":"SP","lat":-22.3375,"lng":-47.1729},{"nome":"Conchas","uf":"SP","lat":-23.0154,"lng":-48.0134},{"nome":"Concórdia","uf":"SC","lat":-27.2335,"lng":-52.026},{"nome":"Concórdia do Pará","uf":"PA","lat":-1.99238,"lng":-47.9422},{"nome":"Condado","uf":"PB","lat":-6.89831,"lng":-37.606},{"nome":"Condado","uf":"PE","lat":-7.58787,"lng":-35.0999},{"nome":"Conde","uf":"PB","lat":-7.25746,"lng":-34.8999},{"nome":"Conde","uf":"BA","lat":-11.8179,"lng":-37.6131},{"nome":"Condeúba","uf":"BA","lat":-14.9022,"lng":-41.9718},{"nome":"Condor","uf":"RS","lat":-28.2075,"lng":-53.4905},{"nome":"Cônego Marinho","uf":"MG","lat":-15.2892,"lng":-44.4181},{"nome":"Confins","uf":"MG","lat":-19.6282,"lng":-43.9931},{"nome":"Confresa","uf":"MT","lat":-10.6437,"lng":-51.5699},{"nome":"Congo","uf":"PB","lat":-7.79078,"lng":-36.6581},{"nome":"Congonhal","uf":"MG","lat":-22.1488,"lng":-46.043},{"nome":"Congonhas","uf":"MG","lat":-20.4958,"lng":-43.851},{"nome":"Congonhas do Norte","uf":"MG","lat":-18.8021,"lng":-43.6767},{"nome":"Congonhinhas","uf":"PR","lat":-23.5493,"lng":-50.5569},{"nome":"Conquista","uf":"MG","lat":-19.9312,"lng":-47.5492},{"nome":"Conquista D'Oeste","uf":"MT","lat":-14.5381,"lng":-59.5444},{"nome":"Conselheiro Lafaiete","uf":"MG","lat":-20.6634,"lng":-43.7846},{"nome":"Conselheiro Mairinck","uf":"PR","lat":-23.623,"lng":-50.1707},{"nome":"Conselheiro Pena","uf":"MG","lat":-19.1789,"lng":-41.4736},{"nome":"Consolação","uf":"MG","lat":-22.5493,"lng":-45.9255},{"nome":"Constantina","uf":"RS","lat":-27.732,"lng":-52.9938},{"nome":"Contagem","uf":"MG","lat":-19.9321,"lng":-44.0539},{"nome":"Contenda","uf":"PR","lat":-25.6788,"lng":-49.535},{"nome":"Contendas do Sincorá","uf":"BA","lat":-13.7537,"lng":-41.048},{"nome":"Coqueiral","uf":"MG","lat":-21.1858,"lng":-45.4366},{"nome":"Coqueiro Baixo","uf":"RS","lat":-29.1802,"lng":-52.0942},{"nome":"Coqueiro Seco","uf":"AL","lat":-9.63715,"lng":-35.7994},{"nome":"Coqueiros do Sul","uf":"RS","lat":-28.1194,"lng":-52.7842},{"nome":"Coração de Jesus","uf":"MG","lat":-16.6841,"lng":-44.3635},{"nome":"Coração de Maria","uf":"BA","lat":-12.2333,"lng":-38.7487},{"nome":"Corbélia","uf":"PR","lat":-24.7971,"lng":-53.3006},{"nome":"Cordeiro","uf":"RJ","lat":-22.0267,"lng":-42.3648},{"nome":"Cordeirópolis","uf":"SP","lat":-22.4778,"lng":-47.4519},{"nome":"Cordeiros","uf":"BA","lat":-15.0356,"lng":-41.9308},{"nome":"Cordilheira Alta","uf":"SC","lat":-26.9844,"lng":-52.6056},{"nome":"Cordisburgo","uf":"MG","lat":-19.1224,"lng":-44.3224},{"nome":"Cordislândia","uf":"MG","lat":-21.7891,"lng":-45.6999},{"nome":"Coreaú","uf":"CE","lat":-3.5415,"lng":-40.6587},{"nome":"Coremas","uf":"PB","lat":-7.00712,"lng":-37.9346},{"nome":"Corguinho","uf":"MS","lat":-19.8243,"lng":-54.8281},{"nome":"Coribe","uf":"BA","lat":-13.8232,"lng":-44.4586},{"nome":"Corinto","uf":"MG","lat":-18.369,"lng":-44.4542},{"nome":"Cornélio Procópio","uf":"PR","lat":-23.1829,"lng":-50.6498},{"nome":"Coroaci","uf":"MG","lat":-18.6156,"lng":-42.2791},{"nome":"Coroados","uf":"SP","lat":-21.3521,"lng":-50.2859},{"nome":"Coroatá","uf":"MA","lat":-4.13442,"lng":-44.1244},{"nome":"Coromandel","uf":"MG","lat":-18.4734,"lng":-47.1933},{"nome":"Coronel Barros","uf":"RS","lat":-28.3921,"lng":-54.0686},{"nome":"Coronel Bicaco","uf":"RS","lat":-27.7197,"lng":-53.7022},{"nome":"Coronel Domingos Soares","uf":"PR","lat":-26.2277,"lng":-52.0356},{"nome":"Coronel Ezequiel","uf":"RN","lat":-6.3748,"lng":-36.2223},{"nome":"Coronel Fabriciano","uf":"MG","lat":-19.5179,"lng":-42.6276},{"nome":"Coronel Freitas","uf":"SC","lat":-26.9057,"lng":-52.7011},{"nome":"Coronel João Pessoa","uf":"RN","lat":-6.24974,"lng":-38.4441},{"nome":"Coronel João Sá","uf":"BA","lat":-10.2847,"lng":-37.9198},{"nome":"Coronel José Dias","uf":"PI","lat":-8.81397,"lng":-42.5232},{"nome":"Coronel Macedo","uf":"SP","lat":-23.6261,"lng":-49.31},{"nome":"Coronel Martins","uf":"SC","lat":-26.511,"lng":-52.6694},{"nome":"Coronel Murta","uf":"MG","lat":-16.6148,"lng":-42.184},{"nome":"Coronel Pacheco","uf":"MG","lat":-21.5898,"lng":-43.256},{"nome":"Coronel Pilar","uf":"RS","lat":-29.2695,"lng":-51.6847},{"nome":"Coronel Sapucaia","uf":"MS","lat":-23.2724,"lng":-55.5278},{"nome":"Coronel Vivida","uf":"PR","lat":-25.9767,"lng":-52.5641},{"nome":"Coronel Xavier Chaves","uf":"MG","lat":-21.0277,"lng":-44.2206},{"nome":"Córrego Danta","uf":"MG","lat":-19.8198,"lng":-45.9032},{"nome":"Córrego do Bom Jesus","uf":"MG","lat":-22.6269,"lng":-46.0241},{"nome":"Córrego do Ouro","uf":"GO","lat":-16.2918,"lng":-50.5503},{"nome":"Córrego Fundo","uf":"MG","lat":-20.4474,"lng":-45.5617},{"nome":"Córrego Novo","uf":"MG","lat":-19.8361,"lng":-42.3988},{"nome":"Correia Pinto","uf":"SC","lat":-27.5877,"lng":-50.3614},{"nome":"Corrente","uf":"PI","lat":-10.4333,"lng":-45.1633},{"nome":"Correntes","uf":"PE","lat":-9.12117,"lng":-36.3244},{"nome":"Correntina","uf":"BA","lat":-13.3477,"lng":-44.6333},{"nome":"Cortês","uf":"PE","lat":-8.47443,"lng":-35.5468},{"nome":"Corumbá","uf":"MS","lat":-19.0077,"lng":-57.651},{"nome":"Corumbá de Goiás","uf":"GO","lat":-15.9245,"lng":-48.8117},{"nome":"Corumbaíba","uf":"GO","lat":-18.1415,"lng":-48.5626},{"nome":"Corumbataí","uf":"SP","lat":-22.2213,"lng":-47.6215},{"nome":"Corumbataí do Sul","uf":"PR","lat":-24.101,"lng":-52.1177},{"nome":"Corumbiara","uf":"RO","lat":-12.9551,"lng":-60.8947},{"nome":"Corupá","uf":"SC","lat":-26.4246,"lng":-49.246},{"nome":"Coruripe","uf":"AL","lat":-10.1276,"lng":-36.1717},{"nome":"Cosmópolis","uf":"SP","lat":-22.6419,"lng":-47.1926},{"nome":"Cosmorama","uf":"SP","lat":-20.4755,"lng":-49.7827},{"nome":"Costa Marques","uf":"RO","lat":-12.4367,"lng":-64.228},{"nome":"Costa Rica","uf":"MS","lat":-18.5432,"lng":-53.1287},{"nome":"Cotegipe","uf":"BA","lat":-12.0228,"lng":-44.2566},{"nome":"Cotia","uf":"SP","lat":-23.6022,"lng":-46.919},{"nome":"Cotiporã","uf":"RS","lat":-28.9891,"lng":-51.6971},{"nome":"Cotriguaçu","uf":"MT","lat":-9.85656,"lng":-58.4192},{"nome":"Couto de Magalhães de Minas","uf":"MG","lat":-18.0727,"lng":-43.4648},{"nome":"Couto Magalhães","uf":"TO","lat":-8.28411,"lng":-49.2473},{"nome":"Coxilha","uf":"RS","lat":-28.128,"lng":-52.3023},{"nome":"Coxim","uf":"MS","lat":-18.5013,"lng":-54.751},{"nome":"Coxixola","uf":"PB","lat":-7.62365,"lng":-36.6064},{"nome":"Craíbas","uf":"AL","lat":-9.6178,"lng":-36.7697},{"nome":"Crateús","uf":"CE","lat":-5.16768,"lng":-40.6536},{"nome":"Crato","uf":"CE","lat":-7.2153,"lng":-39.4103},{"nome":"Cravinhos","uf":"SP","lat":-21.338,"lng":-47.7324},{"nome":"Cravolândia","uf":"BA","lat":-13.3531,"lng":-39.8031},{"nome":"Criciúma","uf":"SC","lat":-28.6723,"lng":-49.3729},{"nome":"Crisólita","uf":"MG","lat":-17.2381,"lng":-40.9184},{"nome":"Crisópolis","uf":"BA","lat":-11.5059,"lng":-38.1515},{"nome":"Crissiumal","uf":"RS","lat":-27.4999,"lng":-54.0994},{"nome":"Cristais","uf":"MG","lat":-20.8733,"lng":-45.5167},{"nome":"Cristais Paulista","uf":"SP","lat":-20.4036,"lng":-47.4209},{"nome":"Cristal","uf":"RS","lat":-31.0046,"lng":-52.0436},{"nome":"Cristal do Sul","uf":"RS","lat":-27.452,"lng":-53.2422},{"nome":"Cristalândia","uf":"TO","lat":-10.5985,"lng":-49.1942},{"nome":"Cristalândia do Piauí","uf":"PI","lat":-10.6443,"lng":-45.1893},{"nome":"Cristália","uf":"MG","lat":-16.716,"lng":-42.8571},{"nome":"Cristalina","uf":"GO","lat":-16.7676,"lng":-47.6131},{"nome":"Cristiano Otoni","uf":"MG","lat":-20.8324,"lng":-43.8166},{"nome":"Cristianópolis","uf":"GO","lat":-17.1987,"lng":-48.7034},{"nome":"Cristina","uf":"MG","lat":-22.208,"lng":-45.2673},{"nome":"Cristinápolis","uf":"SE","lat":-11.4668,"lng":-37.7585},{"nome":"Cristino Castro","uf":"PI","lat":-8.82273,"lng":-44.223},{"nome":"Cristópolis","uf":"BA","lat":-12.2249,"lng":-44.4214},{"nome":"Crixás","uf":"GO","lat":-14.5412,"lng":-49.974},{"nome":"Crixás do Tocantins","uf":"TO","lat":-11.0994,"lng":-48.9152},{"nome":"Croatá","uf":"CE","lat":-4.40481,"lng":-40.9022},{"nome":"Cromínia","uf":"GO","lat":-17.2883,"lng":-49.3798},{"nome":"Crucilândia","uf":"MG","lat":-20.3923,"lng":-44.3334},{"nome":"Cruz","uf":"CE","lat":-2.91813,"lng":-40.176},{"nome":"Cruz Alta","uf":"RS","lat":-28.645,"lng":-53.6048},{"nome":"Cruz das Almas","uf":"BA","lat":-12.6675,"lng":-39.1008},{"nome":"Cruz do Espírito Santo","uf":"PB","lat":-7.13902,"lng":-35.0857},{"nome":"Cruz Machado","uf":"PR","lat":-26.0166,"lng":-51.343},{"nome":"Cruzália","uf":"SP","lat":-22.7373,"lng":-50.7909},{"nome":"Cruzaltense","uf":"RS","lat":-27.6672,"lng":-52.6522},{"nome":"Cruzeiro","uf":"SP","lat":-22.5728,"lng":-44.969},{"nome":"Cruzeiro da Fortaleza","uf":"MG","lat":-18.944,"lng":-46.6669},{"nome":"Cruzeiro do Iguaçu","uf":"PR","lat":-25.6192,"lng":-53.1285},{"nome":"Cruzeiro do Oeste","uf":"PR","lat":-23.7799,"lng":-53.0774},{"nome":"Cruzeiro do Sul","uf":"PR","lat":-22.9624,"lng":-52.1622},{"nome":"Cruzeiro do Sul","uf":"RS","lat":-29.5148,"lng":-51.9928},{"nome":"Cruzeiro do Sul","uf":"AC","lat":-7.62762,"lng":-72.6756},{"nome":"Cruzeta","uf":"RN","lat":-6.40894,"lng":-36.7782},{"nome":"Cruzília","uf":"MG","lat":-21.84,"lng":-44.8067},{"nome":"Cruzmaltina","uf":"PR","lat":-24.0132,"lng":-51.4563},{"nome":"Cubatão","uf":"SP","lat":-23.8911,"lng":-46.424},{"nome":"Cubati","uf":"PB","lat":-6.86686,"lng":-36.3619},{"nome":"Cuiabá","uf":"MT","lat":-15.601,"lng":-56.0974},{"nome":"Cuité","uf":"PB","lat":-6.47647,"lng":-36.1515},{"nome":"Cuité de Mamanguape","uf":"PB","lat":-6.91292,"lng":-35.2502},{"nome":"Cuitegi","uf":"PB","lat":-6.89058,"lng":-35.5215},{"nome":"Cujubim","uf":"RO","lat":-9.36065,"lng":-62.5846},{"nome":"Cumari","uf":"GO","lat":-18.2644,"lng":-48.1511},{"nome":"Cumaru","uf":"PE","lat":-8.00827,"lng":-35.6957},{"nome":"Cumaru do Norte","uf":"PA","lat":-7.81097,"lng":-50.7698},{"nome":"Cumbe","uf":"SE","lat":-10.352,"lng":-37.1846},{"nome":"Cunha","uf":"SP","lat":-23.0731,"lng":-44.9576},{"nome":"Cunha Porã","uf":"SC","lat":-26.895,"lng":-53.1662},{"nome":"Cunhataí","uf":"SC","lat":-26.9709,"lng":-53.0895},{"nome":"Cuparaque","uf":"MG","lat":-18.9648,"lng":-41.0986},{"nome":"Cupira","uf":"PE","lat":-8.62432,"lng":-35.9518},{"nome":"Curaçá","uf":"BA","lat":-8.98458,"lng":-39.8997},{"nome":"Curimatá","uf":"PI","lat":-10.0326,"lng":-44.3002},{"nome":"Curionópolis","uf":"PA","lat":-6.09965,"lng":-49.6068},{"nome":"Curitiba","uf":"PR","lat":-25.4195,"lng":-49.2646},{"nome":"Curitibanos","uf":"SC","lat":-27.2824,"lng":-50.5816},{"nome":"Curiúva","uf":"PR","lat":-24.0362,"lng":-50.4576},{"nome":"Currais","uf":"PI","lat":-9.01175,"lng":-44.4062},{"nome":"Currais Novos","uf":"RN","lat":-6.25484,"lng":-36.5146},{"nome":"Curral de Cima","uf":"PB","lat":-6.72325,"lng":-35.2639},{"nome":"Curral de Dentro","uf":"MG","lat":-15.9327,"lng":-41.8557},{"nome":"Curral Novo do Piauí","uf":"PI","lat":-7.8313,"lng":-40.8957},{"nome":"Curral Velho","uf":"PB","lat":-7.53075,"lng":-38.1962},{"nome":"Curralinho","uf":"PA","lat":-1.81179,"lng":-49.7952},{"nome":"Curralinhos","uf":"PI","lat":-5.60825,"lng":-42.8376},{"nome":"Curuá","uf":"PA","lat":-1.88775,"lng":-55.1168},{"nome":"Curuçá","uf":"PA","lat":-0.733214,"lng":-47.8515},{"nome":"Cururupu","uf":"MA","lat":-1.81475,"lng":-44.8644},{"nome":"Curvelândia","uf":"MT","lat":-15.6084,"lng":-57.9133},{"nome":"Curvelo","uf":"MG","lat":-18.7527,"lng":-44.4303},{"nome":"Custódia","uf":"PE","lat":-8.08546,"lng":-37.6443},{"nome":"Cutias","uf":"AP","lat":0.970761,"lng":-50.8005},{"nome":"Damianópolis","uf":"GO","lat":-14.5604,"lng":-46.178},{"nome":"Damião","uf":"PB","lat":-6.63161,"lng":-35.9101},{"nome":"Damolândia","uf":"GO","lat":-16.2544,"lng":-49.3631},{"nome":"Darcinópolis","uf":"TO","lat":-6.71591,"lng":-47.7597},{"nome":"Dário Meira","uf":"BA","lat":-14.4229,"lng":-39.9031},{"nome":"Datas","uf":"MG","lat":-18.4478,"lng":-43.6591},{"nome":"David Canabarro","uf":"RS","lat":-28.3849,"lng":-51.8482},{"nome":"Davinópolis","uf":"MA","lat":-5.54637,"lng":-47.4217},{"nome":"Davinópolis","uf":"GO","lat":-18.1501,"lng":-47.5568},{"nome":"Delfim Moreira","uf":"MG","lat":-22.5036,"lng":-45.2792},{"nome":"Delfinópolis","uf":"MG","lat":-20.3468,"lng":-46.8456},{"nome":"Delmiro Gouveia","uf":"AL","lat":-9.38534,"lng":-37.9987},{"nome":"Delta","uf":"MG","lat":-19.9721,"lng":-47.7841},{"nome":"Demerval Lobão","uf":"PI","lat":-5.35875,"lng":-42.6776},{"nome":"Denise","uf":"MT","lat":-14.7324,"lng":-57.0583},{"nome":"Deodápolis","uf":"MS","lat":-22.2763,"lng":-54.1682},{"nome":"Deputado Irapuan Pinheiro","uf":"CE","lat":-5.91485,"lng":-39.257},{"nome":"Derrubadas","uf":"RS","lat":-27.2642,"lng":-53.8645},{"nome":"Descalvado","uf":"SP","lat":-21.9002,"lng":-47.6181},{"nome":"Descanso","uf":"SC","lat":-26.827,"lng":-53.5034},{"nome":"Descoberto","uf":"MG","lat":-21.46,"lng":-42.9618},{"nome":"Desterro","uf":"PB","lat":-7.287,"lng":-37.0925},{"nome":"Desterro de Entre Rios","uf":"MG","lat":-20.665,"lng":-44.3334},{"nome":"Desterro do Melo","uf":"MG","lat":-21.143,"lng":-43.5178},{"nome":"Dezesseis de Novembro","uf":"RS","lat":-28.219,"lng":-55.0617},{"nome":"Diadema","uf":"SP","lat":-23.6813,"lng":-46.6205},{"nome":"Diamante","uf":"PB","lat":-7.41738,"lng":-38.2615},{"nome":"Diamante D'Oeste","uf":"PR","lat":-24.9419,"lng":-54.1052},{"nome":"Diamante do Norte","uf":"PR","lat":-22.655,"lng":-52.8617},{"nome":"Diamante do Sul","uf":"PR","lat":-25.035,"lng":-52.6768},{"nome":"Diamantina","uf":"MG","lat":-18.2413,"lng":-43.6031},{"nome":"Diamantino","uf":"MT","lat":-14.4037,"lng":-56.4366},{"nome":"Dianópolis","uf":"TO","lat":-11.624,"lng":-46.8198},{"nome":"Dias d'Ávila","uf":"BA","lat":-12.6187,"lng":-38.2926},{"nome":"Dilermando de Aguiar","uf":"RS","lat":-29.7054,"lng":-54.2122},{"nome":"Diogo de Vasconcelos","uf":"MG","lat":-20.4879,"lng":-43.1953},{"nome":"Dionísio","uf":"MG","lat":-19.8433,"lng":-42.7701},{"nome":"Dionísio Cerqueira","uf":"SC","lat":-26.2648,"lng":-53.6351},{"nome":"Diorama","uf":"GO","lat":-16.2329,"lng":-51.2543},{"nome":"Dirce Reis","uf":"SP","lat":-20.4642,"lng":-50.6073},{"nome":"Dirceu Arcoverde","uf":"PI","lat":-9.33939,"lng":-42.4348},{"nome":"Divina Pastora","uf":"SE","lat":-10.6782,"lng":-37.1506},{"nome":"Divinésia","uf":"MG","lat":-20.9917,"lng":-43.0003},{"nome":"Divino","uf":"MG","lat":-20.6134,"lng":-42.1438},{"nome":"Divino das Laranjeiras","uf":"MG","lat":-18.7755,"lng":-41.4781},{"nome":"Divino de São Lourenço","uf":"ES","lat":-20.6229,"lng":-41.6937},{"nome":"Divinolândia","uf":"SP","lat":-21.6637,"lng":-46.7361},{"nome":"Divinolândia de Minas","uf":"MG","lat":-18.8004,"lng":-42.6103},{"nome":"Divinópolis","uf":"MG","lat":-20.1446,"lng":-44.8912},{"nome":"Divinópolis de Goiás","uf":"GO","lat":-13.2853,"lng":-46.3999},{"nome":"Divinópolis do Tocantins","uf":"TO","lat":-9.80018,"lng":-49.2169},{"nome":"Divisa Alegre","uf":"MG","lat":-15.7221,"lng":-41.3463},{"nome":"Divisa Nova","uf":"MG","lat":-21.5092,"lng":-46.1904},{"nome":"Divisópolis","uf":"MG","lat":-15.7254,"lng":-40.9997},{"nome":"Dobrada","uf":"SP","lat":-21.5155,"lng":-48.3935},{"nome":"Dois Córregos","uf":"SP","lat":-22.3673,"lng":-48.3819},{"nome":"Dois Irmãos","uf":"RS","lat":-29.5836,"lng":-51.0898},{"nome":"Dois Irmãos das Missões","uf":"RS","lat":-27.6621,"lng":-53.5304},{"nome":"Dois Irmãos do Buriti","uf":"MS","lat":-20.6848,"lng":-55.2915},